[
  {
    "storeId":0,
    "store":"Conway Supercenter",
    "city":"Conway",
    "state":"AR",
    "country":"US",
    "lat":35.10866,
    "lng":-92.436905,
    "url":"https:\/\/www.walmart.com\/store\/5\/conway-ar\/details"
  },
  {
    "storeId":1,
    "store":"Sikeston Supercenter",
    "city":"Sikeston",
    "state":"MO",
    "country":"US",
    "lat":36.857394,
    "lng":-89.586051,
    "url":"https:\/\/www.walmart.com\/store\/9\/sikeston-mo\/details"
  },
  {
    "storeId":2,
    "store":"Tahlequah Supercenter",
    "city":"Tahlequah",
    "state":"OK",
    "country":"US",
    "lat":35.888765,
    "lng":-94.979859,
    "url":"https:\/\/www.walmart.com\/store\/10\/tahlequah-ok\/details"
  },
  {
    "storeId":3,
    "store":"Mountain Home Supercenter",
    "city":"Mountain Home",
    "state":"AR",
    "country":"US",
    "lat":36.3549565,
    "lng":-92.3410256,
    "url":"https:\/\/www.walmart.com\/store\/11\/mountain-home-ar\/details"
  },
  {
    "storeId":4,
    "store":"Claremore Supercenter",
    "city":"Claremore",
    "state":"OK",
    "country":"US",
    "lat":36.293955,
    "lng":-95.627125,
    "url":"https:\/\/www.walmart.com\/store\/12\/claremore-ok\/details"
  },
  {
    "storeId":5,
    "store":"Carthage Supercenter",
    "city":"Carthage",
    "state":"MO",
    "country":"US",
    "lat":37.141958,
    "lng":-94.313292,
    "url":"https:\/\/www.walmart.com\/store\/13\/carthage-mo\/details"
  },
  {
    "storeId":6,
    "store":"Rogers Supercenter",
    "city":"Rogers",
    "state":"AR",
    "country":"US",
    "lat":36.3313,
    "lng":-94.149024,
    "url":"https:\/\/www.walmart.com\/store\/1\/rogers-ar\/details"
  },
  {
    "storeId":7,
    "store":"Siloam Springs Supercenter",
    "city":"Siloam Springs",
    "state":"AR",
    "country":"US",
    "lat":36.183467,
    "lng":-94.512608,
    "url":"https:\/\/www.walmart.com\/store\/4\/siloam-springs-ar\/details"
  },
  {
    "storeId":8,
    "store":"Lebanon Supercenter",
    "city":"Lebanon",
    "state":"MO",
    "country":"US",
    "lat":37.663493,
    "lng":-92.645849,
    "url":"https:\/\/www.walmart.com\/store\/14\/lebanon-mo\/details"
  },
  {
    "storeId":9,
    "store":"West Plains Supercenter",
    "city":"West Plains",
    "state":"MO",
    "country":"US",
    "lat":36.714712,
    "lng":-91.870322,
    "url":"https:\/\/www.walmart.com\/store\/15\/west-plains-mo\/details"
  },
  {
    "storeId":10,
    "store":"Sherwood Supercenter",
    "city":"Sherwood",
    "state":"AR",
    "country":"US",
    "lat":34.838767,
    "lng":-92.236838,
    "url":"https:\/\/www.walmart.com\/store\/7\/sherwood-ar\/details"
  },
  {
    "storeId":11,
    "store":"Harrison Supercenter",
    "city":"Harrison",
    "state":"AR",
    "country":"US",
    "lat":36.269042,
    "lng":-93.139074,
    "url":"https:\/\/www.walmart.com\/store\/2\/harrison-ar\/details"
  },
  {
    "storeId":12,
    "store":"Commerce Supercenter",
    "city":"Commerce",
    "state":"GA",
    "country":"US",
    "lat":34.247854,
    "lng":-83.456616,
    "url":"https:\/\/www.walmart.com\/store\/3\/commerce-ga\/details"
  },
  {
    "storeId":13,
    "store":"Van Buren Supercenter",
    "city":"Van Buren",
    "state":"AR",
    "country":"US",
    "lat":35.469113,
    "lng":-94.353427,
    "url":"https:\/\/www.walmart.com\/store\/16\/van-buren-ar\/details"
  },
  {
    "storeId":14,
    "store":"Newport Supercenter",
    "city":"Newport",
    "state":"AR",
    "country":"US",
    "lat":35.618058,
    "lng":-91.254954,
    "url":"https:\/\/www.walmart.com\/store\/18\/newport-ar\/details"
  },
  {
    "storeId":15,
    "store":"Morrilton Supercenter",
    "city":"Morrilton",
    "state":"AR",
    "country":"US",
    "lat":35.168795,
    "lng":-92.726727,
    "url":"https:\/\/www.walmart.com\/store\/8\/morrilton-ar\/details"
  },
  {
    "storeId":16,
    "store":"Neosho Supercenter",
    "city":"Neosho",
    "state":"MO",
    "country":"US",
    "lat":36.839161,
    "lng":-94.397282,
    "url":"https:\/\/www.walmart.com\/store\/17\/neosho-mo\/details"
  },
  {
    "storeId":17,
    "store":"Saint Robert Supercenter",
    "city":"Saint Robert",
    "state":"MO",
    "country":"US",
    "lat":37.825154,
    "lng":-92.152265,
    "url":"https:\/\/www.walmart.com\/store\/21\/saint-robert-mo\/details"
  },
  {
    "storeId":18,
    "store":"Poplar Bluff Supercenter",
    "city":"Poplar Bluff",
    "state":"MO",
    "country":"US",
    "lat":36.755728,
    "lng":-90.411818,
    "url":"https:\/\/www.walmart.com\/store\/19\/poplar-bluff-mo\/details"
  },
  {
    "storeId":19,
    "store":"Pryor Supercenter",
    "city":"Pryor",
    "state":"OK",
    "country":"US",
    "lat":36.262476,
    "lng":-95.330024,
    "url":"https:\/\/www.walmart.com\/store\/22\/pryor-ok\/details"
  },
  {
    "storeId":20,
    "store":"Clinton Supercenter",
    "city":"Clinton",
    "state":"MO",
    "country":"US",
    "lat":38.362772,
    "lng":-93.750585,
    "url":"https:\/\/www.walmart.com\/store\/20\/clinton-mo\/details"
  },
  {
    "storeId":21,
    "store":"Jacksonville Supercenter",
    "city":"Jacksonville",
    "state":"AR",
    "country":"US",
    "lat":34.885098,
    "lng":-92.11255,
    "url":"https:\/\/www.walmart.com\/store\/24\/jacksonville-ar\/details"
  },
  {
    "storeId":22,
    "store":"Leavenworth Supercenter",
    "city":"Leavenworth",
    "state":"KS",
    "country":"US",
    "lat":39.268764,
    "lng":-94.930386,
    "url":"https:\/\/www.walmart.com\/store\/26\/leavenworth-ks\/details"
  },
  {
    "storeId":23,
    "store":"Ruston Supercenter",
    "city":"Ruston",
    "state":"LA",
    "country":"US",
    "lat":32.543518,
    "lng":-92.624043,
    "url":"https:\/\/www.walmart.com\/store\/23\/ruston-la\/details"
  },
  {
    "storeId":24,
    "store":"Mexico Supercenter",
    "city":"Mexico",
    "state":"MO",
    "country":"US",
    "lat":39.120508,
    "lng":-91.890515,
    "url":"https:\/\/www.walmart.com\/store\/25\/mexico-mo\/details"
  },
  {
    "storeId":25,
    "store":"Salem Supercenter",
    "city":"Salem",
    "state":"MO",
    "country":"US",
    "lat":37.634119,
    "lng":-91.546043,
    "url":"https:\/\/www.walmart.com\/store\/27\/salem-mo\/details"
  },
  {
    "storeId":26,
    "store":"Miami Supercenter",
    "city":"Miami",
    "state":"OK",
    "country":"US",
    "lat":36.904509,
    "lng":-94.880384,
    "url":"https:\/\/www.walmart.com\/store\/28\/miami-ok\/details"
  },
  {
    "storeId":27,
    "store":"Dexter Supercenter",
    "city":"Dexter",
    "state":"MO",
    "country":"US",
    "lat":36.801185,
    "lng":-89.992373,
    "url":"https:\/\/www.walmart.com\/store\/30\/dexter-mo\/details"
  },
  {
    "storeId":28,
    "store":"Poteau Supercenter",
    "city":"Poteau",
    "state":"OK",
    "country":"US",
    "lat":35.094581,
    "lng":-94.628209,
    "url":"https:\/\/www.walmart.com\/store\/31\/poteau-ok\/details"
  },
  {
    "storeId":29,
    "store":"Branson Store",
    "city":"Branson",
    "state":"MO",
    "country":"US",
    "lat":36.639045,
    "lng":-93.259769,
    "url":"https:\/\/www.walmart.com\/store\/32\/branson-mo\/details"
  },
  {
    "storeId":30,
    "store":"Manhattan Supercenter",
    "city":"Manhattan",
    "state":"KS",
    "country":"US",
    "lat":39.188472,
    "lng":-96.556204,
    "url":"https:\/\/www.walmart.com\/store\/35\/manhattan-ks\/details"
  },
  {
    "storeId":31,
    "store":"Nevada Supercenter",
    "city":"Nevada",
    "state":"MO",
    "country":"US",
    "lat":37.832201,
    "lng":-94.326552,
    "url":"https:\/\/www.walmart.com\/store\/34\/nevada-mo\/details"
  },
  {
    "storeId":32,
    "store":"Nashville Supercenter",
    "city":"Nashville",
    "state":"AR",
    "country":"US",
    "lat":33.925385,
    "lng":-93.857443,
    "url":"https:\/\/www.walmart.com\/store\/33\/nashville-ar\/details"
  },
  {
    "storeId":33,
    "store":"Paragould Supercenter",
    "city":"Paragould",
    "state":"AR",
    "country":"US",
    "lat":36.057305,
    "lng":-90.52294,
    "url":"https:\/\/www.walmart.com\/store\/36\/paragould-ar\/details"
  },
  {
    "storeId":34,
    "store":"Farmington Supercenter",
    "city":"Farmington",
    "state":"MO",
    "country":"US",
    "lat":37.7894913,
    "lng":-90.4353609,
    "url":"https:\/\/www.walmart.com\/store\/37\/farmington-mo\/details"
  },
  {
    "storeId":35,
    "store":"Idabel Supercenter",
    "city":"Idabel",
    "state":"OK",
    "country":"US",
    "lat":33.898037,
    "lng":-94.803528,
    "url":"https:\/\/www.walmart.com\/store\/38\/idabel-ok\/details"
  },
  {
    "storeId":36,
    "store":"Bartlesville Supercenter",
    "city":"Bartlesville",
    "state":"OK",
    "country":"US",
    "lat":36.740695,
    "lng":-95.931584,
    "url":"https:\/\/www.walmart.com\/store\/41\/bartlesville-ok\/details"
  },
  {
    "storeId":37,
    "store":"Fort Scott Supercenter",
    "city":"Fort Scott",
    "state":"KS",
    "country":"US",
    "lat":37.807978,
    "lng":-94.708671,
    "url":"https:\/\/www.walmart.com\/store\/39\/fort-scott-ks\/details"
  },
  {
    "storeId":38,
    "store":"Coffeyville Supercenter",
    "city":"Coffeyville",
    "state":"KS",
    "country":"US",
    "lat":37.042359,
    "lng":-95.579038,
    "url":"https:\/\/www.walmart.com\/store\/42\/coffeyville-ks\/details"
  },
  {
    "storeId":39,
    "store":"Moberly Supercenter",
    "city":"Moberly",
    "state":"MO",
    "country":"US",
    "lat":39.4476727,
    "lng":-92.4204522,
    "url":"https:\/\/www.walmart.com\/store\/40\/moberly-mo\/details"
  },
  {
    "storeId":40,
    "store":"Eldon Store",
    "city":"Eldon",
    "state":"MO",
    "country":"US",
    "lat":38.3352206,
    "lng":-92.5838242,
    "url":"https:\/\/www.walmart.com\/store\/44\/eldon-mo\/details"
  },
  {
    "storeId":41,
    "store":"Jefferson City Supercenter",
    "city":"Jefferson City",
    "state":"MO",
    "country":"US",
    "lat":38.580049,
    "lng":-92.219907,
    "url":"https:\/\/www.walmart.com\/store\/29\/jefferson-city-mo\/details"
  },
  {
    "storeId":42,
    "store":"Junction City Supercenter",
    "city":"Junction City",
    "state":"KS",
    "country":"US",
    "lat":39.018965,
    "lng":-96.820674,
    "url":"https:\/\/www.walmart.com\/store\/43\/junction-city-ks\/details"
  },
  {
    "storeId":43,
    "store":"Bolivar Supercenter",
    "city":"Bolivar",
    "state":"MO",
    "country":"US",
    "lat":37.591722,
    "lng":-93.403975,
    "url":"https:\/\/www.walmart.com\/store\/46\/bolivar-mo\/details"
  },
  {
    "storeId":44,
    "store":"Jonesboro Supercenter",
    "city":"Jonesboro",
    "state":"AR",
    "country":"US",
    "lat":35.81895,
    "lng":-90.685267,
    "url":"https:\/\/www.walmart.com\/store\/45\/jonesboro-ar\/details"
  },
  {
    "storeId":45,
    "store":"Monett Supercenter",
    "city":"Monett",
    "state":"MO",
    "country":"US",
    "lat":36.911771,
    "lng":-93.903147,
    "url":"https:\/\/www.walmart.com\/store\/48\/monett-mo\/details"
  },
  {
    "storeId":46,
    "store":"Hot Springs Supercenter",
    "city":"Hot Springs",
    "state":"AR",
    "country":"US",
    "lat":34.490929,
    "lng":-93.089251,
    "url":"https:\/\/www.walmart.com\/store\/52\/hot-springs-ar\/details"
  },
  {
    "storeId":47,
    "store":"Vinita Supercenter",
    "city":"Vinita",
    "state":"OK",
    "country":"US",
    "lat":36.631855,
    "lng":-95.140418,
    "url":"https:\/\/www.walmart.com\/store\/50\/vinita-ok\/details"
  },
  {
    "storeId":48,
    "store":"Sallisaw Supercenter",
    "city":"Sallisaw",
    "state":"OK",
    "country":"US",
    "lat":35.451011,
    "lng":-94.80181,
    "url":"https:\/\/www.walmart.com\/store\/47\/sallisaw-ok\/details"
  },
  {
    "storeId":49,
    "store":"Hugo Supercenter",
    "city":"Hugo",
    "state":"OK",
    "country":"US",
    "lat":34.007244,
    "lng":-95.487949,
    "url":"https:\/\/www.walmart.com\/store\/49\/hugo-ok\/details"
  },
  {
    "storeId":50,
    "store":"Fulton Supercenter",
    "city":"Fulton",
    "state":"MO",
    "country":"US",
    "lat":38.864222,
    "lng":-91.945748,
    "url":"https:\/\/www.walmart.com\/store\/51\/fulton-mo\/details"
  },
  {
    "storeId":51,
    "store":"Springdale Supercenter",
    "city":"Springdale",
    "state":"AR",
    "country":"US",
    "lat":36.166247,
    "lng":-94.146954,
    "url":"https:\/\/www.walmart.com\/store\/54\/springdale-ar\/details"
  },
  {
    "storeId":52,
    "store":"Ava Supercenter",
    "city":"Ava",
    "state":"MO",
    "country":"US",
    "lat":36.959408,
    "lng":-92.676527,
    "url":"https:\/\/www.walmart.com\/store\/56\/ava-mo\/details"
  },
  {
    "storeId":53,
    "store":"Russellville Supercenter",
    "city":"Russellville",
    "state":"AR",
    "country":"US",
    "lat":35.280505,
    "lng":-93.105157,
    "url":"https:\/\/www.walmart.com\/store\/58\/russellville-ar\/details"
  },
  {
    "storeId":54,
    "store":"Booneville Supercenter",
    "city":"Booneville",
    "state":"AR",
    "country":"US",
    "lat":35.1433678,
    "lng":-93.9018368,
    "url":"https:\/\/www.walmart.com\/store\/55\/booneville-ar\/details"
  },
  {
    "storeId":55,
    "store":"Warrensburg Supercenter",
    "city":"Warrensburg",
    "state":"MO",
    "country":"US",
    "lat":38.781105,
    "lng":-93.735334,
    "url":"https:\/\/www.walmart.com\/store\/61\/warrensburg-mo\/details"
  },
  {
    "storeId":56,
    "store":"Troy Supercenter",
    "city":"Troy",
    "state":"MO",
    "country":"US",
    "lat":38.988635,
    "lng":-90.982017,
    "url":"https:\/\/www.walmart.com\/store\/60\/troy-mo\/details"
  },
  {
    "storeId":57,
    "store":"Walnut Ridge Store",
    "city":"Walnut Ridge",
    "state":"AR",
    "country":"US",
    "lat":36.07663,
    "lng":-90.97439,
    "url":"https:\/\/www.walmart.com\/store\/57\/walnut-ridge-ar\/details"
  },
  {
    "storeId":58,
    "store":"Joplin Supercenter",
    "city":"Joplin",
    "state":"MO",
    "country":"US",
    "lat":37.072928,
    "lng":-94.472782,
    "url":"https:\/\/www.walmart.com\/store\/59\/joplin-mo\/details"
  },
  {
    "storeId":59,
    "store":"Blytheville Supercenter",
    "city":"Blytheville",
    "state":"AR",
    "country":"US",
    "lat":35.931083,
    "lng":-89.872175,
    "url":"https:\/\/www.walmart.com\/store\/62\/blytheville-ar\/details"
  },
  {
    "storeId":60,
    "store":"Wynne Supercenter",
    "city":"Wynne",
    "state":"AR",
    "country":"US",
    "lat":35.253427,
    "lng":-90.777454,
    "url":"https:\/\/www.walmart.com\/store\/68\/wynne-ar\/details"
  },
  {
    "storeId":61,
    "store":"Brownsville Supercenter",
    "city":"Brownsville",
    "state":"TN",
    "country":"US",
    "lat":35.5867,
    "lng":-89.238093,
    "url":"https:\/\/www.walmart.com\/store\/64\/brownsville-tn\/details"
  },
  {
    "storeId":62,
    "store":"Clarksville Supercenter",
    "city":"Clarksville",
    "state":"AR",
    "country":"US",
    "lat":35.4486832,
    "lng":-93.4604664,
    "url":"https:\/\/www.walmart.com\/store\/66\/clarksville-ar\/details"
  },
  {
    "storeId":63,
    "store":"Mena Supercenter",
    "city":"Mena",
    "state":"AR",
    "country":"US",
    "lat":34.588589,
    "lng":-94.225872,
    "url":"https:\/\/www.walmart.com\/store\/67\/mena-ar\/details"
  },
  {
    "storeId":64,
    "store":"Sullivan Supercenter",
    "city":"Sullivan",
    "state":"MO",
    "country":"US",
    "lat":38.22075,
    "lng":-91.154792,
    "url":"https:\/\/www.walmart.com\/store\/65\/sullivan-mo\/details"
  },
  {
    "storeId":65,
    "store":"Festus Supercenter",
    "city":"Festus",
    "state":"MO",
    "country":"US",
    "lat":38.211942,
    "lng":-90.387955,
    "url":"https:\/\/www.walmart.com\/store\/69\/festus-mo\/details"
  },
  {
    "storeId":66,
    "store":"Pittsburg Supercenter",
    "city":"Pittsburg",
    "state":"KS",
    "country":"US",
    "lat":37.433957,
    "lng":-94.702301,
    "url":"https:\/\/www.walmart.com\/store\/72\/pittsburg-ks\/details"
  },
  {
    "storeId":67,
    "store":"Osceola Supercenter",
    "city":"Osceola",
    "state":"AR",
    "country":"US",
    "lat":35.6999918,
    "lng":-90.0126791,
    "url":"https:\/\/www.walmart.com\/store\/74\/osceola-ar\/details"
  },
  {
    "storeId":68,
    "store":"West Memphis Supercenter",
    "city":"West Memphis",
    "state":"AR",
    "country":"US",
    "lat":35.165456,
    "lng":-90.20001,
    "url":"https:\/\/www.walmart.com\/store\/70\/west-memphis-ar\/details"
  },
  {
    "storeId":69,
    "store":"Sapulpa Supercenter",
    "city":"Sapulpa",
    "state":"OK",
    "country":"US",
    "lat":35.986324,
    "lng":-96.135074,
    "url":"https:\/\/www.walmart.com\/store\/73\/sapulpa-ok\/details"
  },
  {
    "storeId":70,
    "store":"Pocahontas Supercenter",
    "city":"Pocahontas",
    "state":"AR",
    "country":"US",
    "lat":36.248722,
    "lng":-90.963337,
    "url":"https:\/\/www.walmart.com\/store\/71\/pocahontas-ar\/details"
  },
  {
    "storeId":71,
    "store":"Wagoner Supercenter",
    "city":"Wagoner",
    "state":"OK",
    "country":"US",
    "lat":35.95667,
    "lng":-95.397539,
    "url":"https:\/\/www.walmart.com\/store\/63\/wagoner-ok\/details"
  },
  {
    "storeId":72,
    "store":"Pineville Supercenter",
    "city":"Pineville",
    "state":"LA",
    "country":"US",
    "lat":31.367011,
    "lng":-92.406583,
    "url":"https:\/\/www.walmart.com\/store\/75\/pineville-la\/details"
  },
  {
    "storeId":73,
    "store":"Taylor Supercenter",
    "city":"Taylor",
    "state":"TX",
    "country":"US",
    "lat":30.598559,
    "lng":-97.418418,
    "url":"https:\/\/www.walmart.com\/store\/77\/taylor-tx\/details"
  },
  {
    "storeId":74,
    "store":"Marshfield Supercenter",
    "city":"Marshfield",
    "state":"MO",
    "country":"US",
    "lat":37.337928,
    "lng":-92.939632,
    "url":"https:\/\/www.walmart.com\/store\/78\/marshfield-mo\/details"
  },
  {
    "storeId":75,
    "store":"Columbia Supercenter",
    "city":"Columbia",
    "state":"MO",
    "country":"US",
    "lat":38.957069,
    "lng":-92.382341,
    "url":"https:\/\/www.walmart.com\/store\/80\/columbia-mo\/details"
  },
  {
    "storeId":76,
    "store":"Joplin Supercenter",
    "city":"Joplin",
    "state":"MO",
    "country":"US",
    "lat":37.087131,
    "lng":-94.545908,
    "url":"https:\/\/www.walmart.com\/store\/79\/joplin-mo\/details"
  },
  {
    "storeId":77,
    "store":"Berryville Supercenter",
    "city":"Berryville",
    "state":"AR",
    "country":"US",
    "lat":36.376273,
    "lng":-93.5870153,
    "url":"https:\/\/www.walmart.com\/store\/76\/berryville-ar\/details"
  },
  {
    "storeId":78,
    "store":"Perryville Supercenter",
    "city":"Perryville",
    "state":"MO",
    "country":"US",
    "lat":37.705668,
    "lng":-89.896103,
    "url":"https:\/\/www.walmart.com\/store\/82\/perryville-mo\/details"
  },
  {
    "storeId":79,
    "store":"Magnolia Supercenter",
    "city":"Magnolia",
    "state":"AR",
    "country":"US",
    "lat":33.276653,
    "lng":-93.212017,
    "url":"https:\/\/www.walmart.com\/store\/83\/magnolia-ar\/details"
  },
  {
    "storeId":80,
    "store":"Stilwell Supercenter",
    "city":"Stilwell",
    "state":"OK",
    "country":"US",
    "lat":35.798588,
    "lng":-94.623206,
    "url":"https:\/\/www.walmart.com\/store\/81\/stilwell-ok\/details"
  },
  {
    "storeId":81,
    "store":"Benton Supercenter",
    "city":"Benton",
    "state":"AR",
    "country":"US",
    "lat":34.577533,
    "lng":-92.580065,
    "url":"https:\/\/www.walmart.com\/store\/85\/benton-ar\/details"
  },
  {
    "storeId":82,
    "store":"Springfield Supercenter",
    "city":"Springfield",
    "state":"MO",
    "country":"US",
    "lat":37.248775,
    "lng":-93.313985,
    "url":"https:\/\/www.walmart.com\/store\/86\/springfield-mo\/details"
  },
  {
    "storeId":83,
    "store":"Minden Supercenter",
    "city":"Minden",
    "state":"LA",
    "country":"US",
    "lat":32.6280728,
    "lng":-93.2511369,
    "url":"https:\/\/www.walmart.com\/store\/87\/minden-la\/details"
  },
  {
    "storeId":84,
    "store":"Mountain Grove Supercenter",
    "city":"Mountain Grove",
    "state":"MO",
    "country":"US",
    "lat":37.150021,
    "lng":-92.259461,
    "url":"https:\/\/www.walmart.com\/store\/88\/mountain-grove-mo\/details"
  },
  {
    "storeId":85,
    "store":"Aurora Supercenter",
    "city":"Aurora",
    "state":"MO",
    "country":"US",
    "lat":36.946462,
    "lng":-93.714993,
    "url":"https:\/\/www.walmart.com\/store\/92\/aurora-mo\/details"
  },
  {
    "storeId":86,
    "store":"Camdenton Supercenter",
    "city":"Camdenton",
    "state":"MO",
    "country":"US",
    "lat":38.025748,
    "lng":-92.722992,
    "url":"https:\/\/www.walmart.com\/store\/89\/camdenton-mo\/details"
  },
  {
    "storeId":87,
    "store":"Grove Supercenter",
    "city":"Grove",
    "state":"OK",
    "country":"US",
    "lat":36.5764748,
    "lng":-94.7656055,
    "url":"https:\/\/www.walmart.com\/store\/90\/grove-ok\/details"
  },
  {
    "storeId":88,
    "store":"Covington Supercenter",
    "city":"Covington",
    "state":"TN",
    "country":"US",
    "lat":35.545844,
    "lng":-89.665294,
    "url":"https:\/\/www.walmart.com\/store\/93\/covington-tn\/details"
  },
  {
    "storeId":89,
    "store":"Forrest City Supercenter",
    "city":"Forrest City",
    "state":"AR",
    "country":"US",
    "lat":35.028039,
    "lng":-90.793582,
    "url":"https:\/\/www.walmart.com\/store\/91\/forrest-city-ar\/details"
  },
  {
    "storeId":90,
    "store":"Harrisonville Supercenter",
    "city":"Harrisonville",
    "state":"MO",
    "country":"US",
    "lat":38.666161,
    "lng":-94.369474,
    "url":"https:\/\/www.walmart.com\/store\/96\/harrisonville-mo\/details"
  },
  {
    "storeId":91,
    "store":"Millington Supercenter",
    "city":"Millington",
    "state":"TN",
    "country":"US",
    "lat":35.357703,
    "lng":-89.897647,
    "url":"https:\/\/www.walmart.com\/store\/94\/millington-tn\/details"
  },
  {
    "storeId":92,
    "store":"Desloge Supercenter",
    "city":"Desloge",
    "state":"MO",
    "country":"US",
    "lat":37.883896,
    "lng":-90.513307,
    "url":"https:\/\/www.walmart.com\/store\/95\/desloge-mo\/details"
  },
  {
    "storeId":93,
    "store":"Ripley Supercenter",
    "city":"Ripley",
    "state":"TN",
    "country":"US",
    "lat":35.760785,
    "lng":-89.543058,
    "url":"https:\/\/www.walmart.com\/store\/97\/ripley-tn\/details"
  },
  {
    "storeId":94,
    "store":"Bastrop Supercenter",
    "city":"Bastrop",
    "state":"LA",
    "country":"US",
    "lat":32.775799,
    "lng":-91.870221,
    "url":"https:\/\/www.walmart.com\/store\/98\/bastrop-la\/details"
  },
  {
    "storeId":95,
    "store":"Union Supercenter",
    "city":"Union",
    "state":"MO",
    "country":"US",
    "lat":38.4344195,
    "lng":-90.9700946,
    "url":"https:\/\/www.walmart.com\/store\/99\/union-mo\/details"
  },
  {
    "storeId":96,
    "store":"Bentonville Supercenter",
    "city":"Bentonville",
    "state":"AR",
    "country":"US",
    "lat":36.368151,
    "lng":-94.224959,
    "url":"https:\/\/www.walmart.com\/store\/100\/bentonville-ar\/details"
  },
  {
    "storeId":97,
    "store":"Rolla Supercenter",
    "city":"Rolla",
    "state":"MO",
    "country":"US",
    "lat":37.937606,
    "lng":-91.779138,
    "url":"https:\/\/www.walmart.com\/store\/101\/rolla-mo\/details"
  },
  {
    "storeId":98,
    "store":"Stuttgart Supercenter",
    "city":"Stuttgart",
    "state":"AR",
    "country":"US",
    "lat":34.477048,
    "lng":-91.549074,
    "url":"https:\/\/www.walmart.com\/store\/102\/stuttgart-ar\/details"
  },
  {
    "storeId":99,
    "store":"Shawnee Supercenter",
    "city":"Shawnee",
    "state":"OK",
    "country":"US",
    "lat":35.386877,
    "lng":-96.921788,
    "url":"https:\/\/www.walmart.com\/store\/103\/shawnee-ok\/details"
  },
  {
    "storeId":100,
    "store":"Corinth Supercenter",
    "city":"Corinth",
    "state":"MS",
    "country":"US",
    "lat":34.910046,
    "lng":-88.502016,
    "url":"https:\/\/www.walmart.com\/store\/105\/corinth-ms\/details"
  },
  {
    "storeId":101,
    "store":"Milan Supercenter",
    "city":"Milan",
    "state":"TN",
    "country":"US",
    "lat":35.876197,
    "lng":-88.748089,
    "url":"https:\/\/www.walmart.com\/store\/104\/milan-tn\/details"
  },
  {
    "storeId":102,
    "store":"Fulton Supercenter",
    "city":"Fulton",
    "state":"KY",
    "country":"US",
    "lat":36.51749,
    "lng":-88.900147,
    "url":"https:\/\/www.walmart.com\/store\/106\/fulton-ky\/details"
  },
  {
    "storeId":103,
    "store":"Guthrie Supercenter",
    "city":"Guthrie",
    "state":"OK",
    "country":"US",
    "lat":35.862878,
    "lng":-97.42269,
    "url":"https:\/\/www.walmart.com\/store\/108\/guthrie-ok\/details"
  },
  {
    "storeId":104,
    "store":"Cameron Supercenter",
    "city":"Cameron",
    "state":"MO",
    "country":"US",
    "lat":39.758116,
    "lng":-94.231503,
    "url":"https:\/\/www.walmart.com\/store\/109\/cameron-mo\/details"
  },
  {
    "storeId":105,
    "store":"Winter Garden Supercenter",
    "city":"Winter Garden",
    "state":"FL",
    "country":"US",
    "lat":28.476488,
    "lng":-81.629452,
    "url":"https:\/\/www.walmart.com\/store\/110\/winter-garden-fl\/details"
  },
  {
    "storeId":106,
    "store":"Chanute Supercenter",
    "city":"Chanute",
    "state":"KS",
    "country":"US",
    "lat":37.65365,
    "lng":-95.450998,
    "url":"https:\/\/www.walmart.com\/store\/111\/chanute-ks\/details"
  },
  {
    "storeId":107,
    "store":"Chickasha Supercenter",
    "city":"Chickasha",
    "state":"OK",
    "country":"US",
    "lat":35.031027,
    "lng":-97.931081,
    "url":"https:\/\/www.walmart.com\/store\/113\/chickasha-ok\/details"
  },
  {
    "storeId":108,
    "store":"Starkville Supercenter",
    "city":"Starkville",
    "state":"MS",
    "country":"US",
    "lat":33.444519,
    "lng":-88.851436,
    "url":"https:\/\/www.walmart.com\/store\/112\/starkville-ms\/details"
  },
  {
    "storeId":109,
    "store":"Booneville Supercenter",
    "city":"Booneville",
    "state":"MS",
    "country":"US",
    "lat":34.677408,
    "lng":-88.56422,
    "url":"https:\/\/www.walmart.com\/store\/114\/booneville-ms\/details"
  },
  {
    "storeId":110,
    "store":"West Point Supercenter",
    "city":"West Point",
    "state":"MS",
    "country":"US",
    "lat":33.586655,
    "lng":-88.661913,
    "url":"https:\/\/www.walmart.com\/store\/115\/west-point-ms\/details"
  },
  {
    "storeId":111,
    "store":"Amory Supercenter",
    "city":"Amory",
    "state":"MS",
    "country":"US",
    "lat":33.968526,
    "lng":-88.457017,
    "url":"https:\/\/www.walmart.com\/store\/118\/amory-ms\/details"
  },
  {
    "storeId":112,
    "store":"Vivian Store",
    "city":"Vivian",
    "state":"LA",
    "country":"US",
    "lat":32.857781,
    "lng":-93.986591,
    "url":"https:\/\/www.walmart.com\/store\/116\/vivian-la\/details"
  },
  {
    "storeId":113,
    "store":"Okmulgee Supercenter",
    "city":"Okmulgee",
    "state":"OK",
    "country":"US",
    "lat":35.605657,
    "lng":-95.964357,
    "url":"https:\/\/www.walmart.com\/store\/121\/okmulgee-ok\/details"
  },
  {
    "storeId":114,
    "store":"Batesville Supercenter",
    "city":"Batesville",
    "state":"AR",
    "country":"US",
    "lat":35.762696,
    "lng":-91.614278,
    "url":"https:\/\/www.walmart.com\/store\/119\/batesville-ar\/details"
  },
  {
    "storeId":115,
    "store":"Broken Bow Store",
    "city":"Broken Bow",
    "state":"OK",
    "country":"US",
    "lat":34.0223133,
    "lng":-94.7379574,
    "url":"https:\/\/www.walmart.com\/store\/117\/broken-bow-ok\/details"
  },
  {
    "storeId":116,
    "store":"Martin Supercenter",
    "city":"Martin",
    "state":"TN",
    "country":"US",
    "lat":36.355005,
    "lng":-88.883642,
    "url":"https:\/\/www.walmart.com\/store\/107\/martin-tn\/details"
  },
  {
    "storeId":117,
    "store":"Jackson Supercenter",
    "city":"Jackson",
    "state":"MO",
    "country":"US",
    "lat":37.362068,
    "lng":-89.634627,
    "url":"https:\/\/www.walmart.com\/store\/122\/jackson-mo\/details"
  },
  {
    "storeId":118,
    "store":"Humboldt Supercenter",
    "city":"Humboldt",
    "state":"TN",
    "country":"US",
    "lat":35.840815,
    "lng":-88.911782,
    "url":"https:\/\/www.walmart.com\/store\/120\/humboldt-tn\/details"
  },
  {
    "storeId":119,
    "store":"Little Rock Supercenter",
    "city":"Little Rock",
    "state":"AR",
    "country":"US",
    "lat":34.667147,
    "lng":-92.377089,
    "url":"https:\/\/www.walmart.com\/store\/124\/little-rock-ar\/details"
  },
  {
    "storeId":120,
    "store":"Malvern Supercenter",
    "city":"Malvern",
    "state":"AR",
    "country":"US",
    "lat":34.3907358,
    "lng":-92.8327356,
    "url":"https:\/\/www.walmart.com\/store\/127\/malvern-ar\/details"
  },
  {
    "storeId":121,
    "store":"Jonesboro Supercenter",
    "city":"Jonesboro",
    "state":"AR",
    "country":"US",
    "lat":35.815748,
    "lng":-90.734426,
    "url":"https:\/\/www.walmart.com\/store\/128\/jonesboro-ar\/details"
  },
  {
    "storeId":122,
    "store":"Fort Smith Supercenter",
    "city":"Fort Smith",
    "state":"AR",
    "country":"US",
    "lat":35.329141,
    "lng":-94.406562,
    "url":"https:\/\/www.walmart.com\/store\/125\/fort-smith-ar\/details"
  },
  {
    "storeId":123,
    "store":"Little Rock Supercenter",
    "city":"Little Rock",
    "state":"AR",
    "country":"US",
    "lat":34.72831,
    "lng":-92.397677,
    "url":"https:\/\/www.walmart.com\/store\/126\/little-rock-ar\/details"
  },
  {
    "storeId":124,
    "store":"Muskogee Supercenter",
    "city":"Muskogee",
    "state":"OK",
    "country":"US",
    "lat":35.772625,
    "lng":-95.373093,
    "url":"https:\/\/www.walmart.com\/store\/130\/muskogee-ok\/details"
  },
  {
    "storeId":125,
    "store":"Ardmore Supercenter",
    "city":"Ardmore",
    "state":"OK",
    "country":"US",
    "lat":34.193239,
    "lng":-97.145321,
    "url":"https:\/\/www.walmart.com\/store\/129\/ardmore-ok\/details"
  },
  {
    "storeId":126,
    "store":"Seminole Supercenter",
    "city":"Seminole",
    "state":"OK",
    "country":"US",
    "lat":35.248317,
    "lng":-96.654501,
    "url":"https:\/\/www.walmart.com\/store\/123\/seminole-ok\/details"
  },
  {
    "storeId":127,
    "store":"Kingfisher Supercenter",
    "city":"Kingfisher",
    "state":"OK",
    "country":"US",
    "lat":35.8287229,
    "lng":-97.9367127,
    "url":"https:\/\/www.walmart.com\/store\/132\/kingfisher-ok\/details"
  },
  {
    "storeId":128,
    "store":"Mount Pleasant Supercenter",
    "city":"Mount Pleasant",
    "state":"TX",
    "country":"US",
    "lat":33.134578,
    "lng":-94.964667,
    "url":"https:\/\/www.walmart.com\/store\/131\/mount-pleasant-tx\/details"
  },
  {
    "storeId":129,
    "store":"Ashdown Supercenter",
    "city":"Ashdown",
    "state":"AR",
    "country":"US",
    "lat":33.657167,
    "lng":-94.10924,
    "url":"https:\/\/www.walmart.com\/store\/133\/ashdown-ar\/details"
  },
  {
    "storeId":130,
    "store":"Elk City Supercenter",
    "city":"Elk City",
    "state":"OK",
    "country":"US",
    "lat":35.409307,
    "lng":-99.37645,
    "url":"https:\/\/www.walmart.com\/store\/134\/elk-city-ok\/details"
  },
  {
    "storeId":131,
    "store":"Blackwell Store",
    "city":"Blackwell",
    "state":"OK",
    "country":"US",
    "lat":36.810171,
    "lng":-97.297401,
    "url":"https:\/\/www.walmart.com\/store\/136\/blackwell-ok\/details"
  },
  {
    "storeId":132,
    "store":"Chillicothe Supercenter",
    "city":"Chillicothe",
    "state":"MO",
    "country":"US",
    "lat":39.7765306,
    "lng":-93.55634,
    "url":"https:\/\/www.walmart.com\/store\/135\/chillicothe-mo\/details"
  },
  {
    "storeId":133,
    "store":"Springfield Supercenter",
    "city":"Springfield",
    "state":"MO",
    "country":"US",
    "lat":37.241729,
    "lng":-93.258694,
    "url":"https:\/\/www.walmart.com\/store\/138\/springfield-mo\/details"
  },
  {
    "storeId":134,
    "store":"Stillwater Supercenter",
    "city":"Stillwater",
    "state":"OK",
    "country":"US",
    "lat":36.124523,
    "lng":-97.048223,
    "url":"https:\/\/www.walmart.com\/store\/137\/stillwater-ok\/details"
  },
  {
    "storeId":135,
    "store":"Purcell Supercenter",
    "city":"Purcell",
    "state":"OK",
    "country":"US",
    "lat":34.987486,
    "lng":-97.370172,
    "url":"https:\/\/www.walmart.com\/store\/139\/purcell-ok\/details"
  },
  {
    "storeId":136,
    "store":"Fort Smith Supercenter",
    "city":"Fort Smith",
    "state":"AR",
    "country":"US",
    "lat":35.350111,
    "lng":-94.338702,
    "url":"https:\/\/www.walmart.com\/store\/141\/fort-smith-ar\/details"
  },
  {
    "storeId":137,
    "store":"Fayetteville Supercenter",
    "city":"Fayetteville",
    "state":"AR",
    "country":"US",
    "lat":36.050008,
    "lng":-94.201133,
    "url":"https:\/\/www.walmart.com\/store\/144\/fayetteville-ar\/details"
  },
  {
    "storeId":138,
    "store":"Lufkin Supercenter",
    "city":"Lufkin",
    "state":"TX",
    "country":"US",
    "lat":31.299557,
    "lng":-94.731474,
    "url":"https:\/\/www.walmart.com\/store\/140\/lufkin-tx\/details"
  },
  {
    "storeId":139,
    "store":"Gilmer Supercenter",
    "city":"Gilmer",
    "state":"TX",
    "country":"US",
    "lat":32.747175,
    "lng":-94.93762,
    "url":"https:\/\/www.walmart.com\/store\/146\/gilmer-tx\/details"
  },
  {
    "storeId":140,
    "store":"Benton Supercenter",
    "city":"Benton",
    "state":"KY",
    "country":"US",
    "lat":36.869615,
    "lng":-88.360427,
    "url":"https:\/\/www.walmart.com\/store\/143\/benton-ky\/details"
  },
  {
    "storeId":141,
    "store":"Paris Supercenter",
    "city":"Paris",
    "state":"TX",
    "country":"US",
    "lat":33.664699,
    "lng":-95.505897,
    "url":"https:\/\/www.walmart.com\/store\/148\/paris-tx\/details"
  },
  {
    "storeId":142,
    "store":"Woodward Supercenter",
    "city":"Woodward",
    "state":"OK",
    "country":"US",
    "lat":36.412341,
    "lng":-99.384178,
    "url":"https:\/\/www.walmart.com\/store\/150\/woodward-ok\/details"
  },
  {
    "storeId":143,
    "store":"Bowling Green Supercenter",
    "city":"Bowling Green",
    "state":"MO",
    "country":"US",
    "lat":39.330546,
    "lng":-91.181652,
    "url":"https:\/\/www.walmart.com\/store\/145\/bowling-green-mo\/details"
  },
  {
    "storeId":144,
    "store":"Jonesboro Supercenter",
    "city":"Jonesboro",
    "state":"LA",
    "country":"US",
    "lat":32.227952,
    "lng":-92.705761,
    "url":"https:\/\/www.walmart.com\/store\/149\/jonesboro-la\/details"
  },
  {
    "storeId":145,
    "store":"Denison Supercenter",
    "city":"Denison",
    "state":"TX",
    "country":"US",
    "lat":33.759174,
    "lng":-96.587537,
    "url":"https:\/\/www.walmart.com\/store\/147\/denison-tx\/details"
  },
  {
    "storeId":146,
    "store":"Mcalester Supercenter",
    "city":"Mcalester",
    "state":"OK",
    "country":"US",
    "lat":34.9192022,
    "lng":-95.7404781,
    "url":"https:\/\/www.walmart.com\/store\/151\/mcalester-ok\/details"
  },
  {
    "storeId":147,
    "store":"De Soto Supercenter",
    "city":"De Soto",
    "state":"MO",
    "country":"US",
    "lat":38.150177,
    "lng":-90.574504,
    "url":"https:\/\/www.walmart.com\/store\/152\/de-soto-mo\/details"
  },
  {
    "storeId":148,
    "store":"New Albany Supercenter",
    "city":"New Albany",
    "state":"MS",
    "country":"US",
    "lat":34.492946,
    "lng":-89.032578,
    "url":"https:\/\/www.walmart.com\/store\/153\/new-albany-ms\/details"
  },
  {
    "storeId":149,
    "store":"Searcy Supercenter",
    "city":"Searcy",
    "state":"AR",
    "country":"US",
    "lat":35.247101,
    "lng":-91.687166,
    "url":"https:\/\/www.walmart.com\/store\/157\/searcy-ar\/details"
  },
  {
    "storeId":150,
    "store":"Abingdon Supercenter",
    "city":"Abingdon",
    "state":"VA",
    "country":"US",
    "lat":36.714643,
    "lng":-81.927722,
    "url":"https:\/\/www.walmart.com\/store\/154\/abingdon-va\/details"
  },
  {
    "storeId":151,
    "store":"Columbia Supercenter",
    "city":"Columbia",
    "state":"MO",
    "country":"US",
    "lat":38.954911,
    "lng":-92.296729,
    "url":"https:\/\/www.walmart.com\/store\/159\/columbia-mo\/details"
  },
  {
    "storeId":152,
    "store":"Anadarko Supercenter",
    "city":"Anadarko",
    "state":"OK",
    "country":"US",
    "lat":35.060053,
    "lng":-98.262377,
    "url":"https:\/\/www.walmart.com\/store\/162\/anadarko-ok\/details"
  },
  {
    "storeId":153,
    "store":"Bonham Supercenter",
    "city":"Bonham",
    "state":"TX",
    "country":"US",
    "lat":33.596586,
    "lng":-96.194575,
    "url":"https:\/\/www.walmart.com\/store\/158\/bonham-tx\/details"
  },
  {
    "storeId":154,
    "store":"Ash Flat Supercenter",
    "city":"Ash Flat",
    "state":"AR",
    "country":"US",
    "lat":36.241189,
    "lng":-91.596294,
    "url":"https:\/\/www.walmart.com\/store\/160\/ash-flat-ar\/details"
  },
  {
    "storeId":155,
    "store":"Senatobia Supercenter",
    "city":"Senatobia",
    "state":"MS",
    "country":"US",
    "lat":34.629368,
    "lng":-89.971894,
    "url":"https:\/\/www.walmart.com\/store\/155\/senatobia-ms\/details"
  },
  {
    "storeId":156,
    "store":"Huntingdon Supercenter",
    "city":"Huntingdon",
    "state":"TN",
    "country":"US",
    "lat":35.997828,
    "lng":-88.43735,
    "url":"https:\/\/www.walmart.com\/store\/161\/huntingdon-tn\/details"
  },
  {
    "storeId":157,
    "store":"Nacogdoches Supercenter",
    "city":"Nacogdoches",
    "state":"TX",
    "country":"US",
    "lat":31.650027,
    "lng":-94.652353,
    "url":"https:\/\/www.walmart.com\/store\/163\/nacogdoches-tx\/details"
  },
  {
    "storeId":158,
    "store":"Pontotoc Supercenter",
    "city":"Pontotoc",
    "state":"MS",
    "country":"US",
    "lat":34.285602,
    "lng":-89.021349,
    "url":"https:\/\/www.walmart.com\/store\/164\/pontotoc-ms\/details"
  },
  {
    "storeId":159,
    "store":"Henderson Supercenter",
    "city":"Henderson",
    "state":"TX",
    "country":"US",
    "lat":32.130652,
    "lng":-94.802126,
    "url":"https:\/\/www.walmart.com\/store\/165\/henderson-tx\/details"
  },
  {
    "storeId":160,
    "store":"Houston Supercenter",
    "city":"Houston",
    "state":"MO",
    "country":"US",
    "lat":37.313756,
    "lng":-91.962661,
    "url":"https:\/\/www.walmart.com\/store\/166\/houston-mo\/details"
  },
  {
    "storeId":161,
    "store":"Owasso Supercenter",
    "city":"Owasso",
    "state":"OK",
    "country":"US",
    "lat":36.295227,
    "lng":-95.837899,
    "url":"https:\/\/www.walmart.com\/store\/168\/owasso-ok\/details"
  },
  {
    "storeId":162,
    "store":"Natchitoches Supercenter",
    "city":"Natchitoches",
    "state":"LA",
    "country":"US",
    "lat":31.750245,
    "lng":-93.066686,
    "url":"https:\/\/www.walmart.com\/store\/170\/natchitoches-la\/details"
  },
  {
    "storeId":163,
    "store":"Crossett Supercenter",
    "city":"Crossett",
    "state":"AR",
    "country":"US",
    "lat":33.136229,
    "lng":-91.941957,
    "url":"https:\/\/www.walmart.com\/store\/167\/crossett-ar\/details"
  },
  {
    "storeId":164,
    "store":"Lonoke Supercenter",
    "city":"Lonoke",
    "state":"AR",
    "country":"US",
    "lat":34.805224,
    "lng":-91.894037,
    "url":"https:\/\/www.walmart.com\/store\/169\/lonoke-ar\/details"
  },
  {
    "storeId":165,
    "store":"Camden Supercenter",
    "city":"Camden",
    "state":"AR",
    "country":"US",
    "lat":33.567239,
    "lng":-92.836856,
    "url":"https:\/\/www.walmart.com\/store\/171\/camden-ar\/details"
  },
  {
    "storeId":166,
    "store":"Potosi Supercenter",
    "city":"Potosi",
    "state":"MO",
    "country":"US",
    "lat":37.92381,
    "lng":-90.771606,
    "url":"https:\/\/www.walmart.com\/store\/173\/potosi-mo\/details"
  },
  {
    "storeId":167,
    "store":"Washington Supercenter",
    "city":"Washington",
    "state":"MO",
    "country":"US",
    "lat":38.5404591,
    "lng":-90.9952384,
    "url":"https:\/\/www.walmart.com\/store\/172\/washington-mo\/details"
  },
  {
    "storeId":168,
    "store":"Collierville Supercenter",
    "city":"Collierville",
    "state":"TN",
    "country":"US",
    "lat":35.048344,
    "lng":-89.68099,
    "url":"https:\/\/www.walmart.com\/store\/175\/collierville-tn\/details"
  },
  {
    "storeId":169,
    "store":"Cocoa Supercenter",
    "city":"Cocoa",
    "state":"FL",
    "country":"US",
    "lat":28.395378,
    "lng":-80.753116,
    "url":"https:\/\/www.walmart.com\/store\/174\/cocoa-fl\/details"
  },
  {
    "storeId":170,
    "store":"Ripley Store",
    "city":"Ripley",
    "state":"MS",
    "country":"US",
    "lat":34.72373,
    "lng":-88.950897,
    "url":"https:\/\/www.walmart.com\/store\/176\/ripley-ms\/details"
  },
  {
    "storeId":171,
    "store":"Paris Supercenter",
    "city":"Paris",
    "state":"TN",
    "country":"US",
    "lat":36.281103,
    "lng":-88.307919,
    "url":"https:\/\/www.walmart.com\/store\/177\/paris-tn\/details"
  },
  {
    "storeId":172,
    "store":"Alva Supercenter",
    "city":"Alva",
    "state":"OK",
    "country":"US",
    "lat":36.79952,
    "lng":-98.645026,
    "url":"https:\/\/www.walmart.com\/store\/178\/alva-ok\/details"
  },
  {
    "storeId":173,
    "store":"Springfield Supercenter",
    "city":"Springfield",
    "state":"MO",
    "country":"US",
    "lat":37.180349,
    "lng":-93.352393,
    "url":"https:\/\/www.walmart.com\/store\/179\/springfield-mo\/details"
  },
  {
    "storeId":174,
    "store":"Greenville Supercenter",
    "city":"Greenville",
    "state":"MS",
    "country":"US",
    "lat":33.3678514,
    "lng":-91.0438728,
    "url":"https:\/\/www.walmart.com\/store\/182\/greenville-ms\/details"
  },
  {
    "storeId":175,
    "store":"New Boston Supercenter",
    "city":"New Boston",
    "state":"TX",
    "country":"US",
    "lat":33.470693,
    "lng":-94.403621,
    "url":"https:\/\/www.walmart.com\/store\/181\/new-boston-tx\/details"
  },
  {
    "storeId":176,
    "store":"Gainesville Supercenter",
    "city":"Gainesville",
    "state":"TX",
    "country":"US",
    "lat":33.645646,
    "lng":-97.13596,
    "url":"https:\/\/www.walmart.com\/store\/185\/gainesville-tx\/details"
  },
  {
    "storeId":177,
    "store":"Blue Springs Supercenter",
    "city":"Blue Springs",
    "state":"MO",
    "country":"US",
    "lat":39.024151,
    "lng":-94.25503,
    "url":"https:\/\/www.walmart.com\/store\/184\/blue-springs-mo\/details"
  },
  {
    "storeId":178,
    "store":"Jacksonville Supercenter",
    "city":"Jacksonville",
    "state":"TX",
    "country":"US",
    "lat":31.951409,
    "lng":-95.266334,
    "url":"https:\/\/www.walmart.com\/store\/180\/jacksonville-tx\/details"
  },
  {
    "storeId":179,
    "store":"Louisville Supercenter",
    "city":"Louisville",
    "state":"MS",
    "country":"US",
    "lat":33.122255,
    "lng":-89.08271,
    "url":"https:\/\/www.walmart.com\/store\/183\/louisville-ms\/details"
  },
  {
    "storeId":180,
    "store":"El Dorado Supercenter",
    "city":"El Dorado",
    "state":"KS",
    "country":"US",
    "lat":37.814622,
    "lng":-96.892174,
    "url":"https:\/\/www.walmart.com\/store\/186\/el-dorado-ks\/details"
  },
  {
    "storeId":181,
    "store":"Cape Girardeau Supercenter",
    "city":"Cape Girardeau",
    "state":"MO",
    "country":"US",
    "lat":37.30124,
    "lng":-89.585833,
    "url":"https:\/\/www.walmart.com\/store\/188\/cape-girardeau-mo\/details"
  },
  {
    "storeId":182,
    "store":"Kirksville Supercenter",
    "city":"Kirksville",
    "state":"MO",
    "country":"US",
    "lat":40.216711,
    "lng":-92.579522,
    "url":"https:\/\/www.walmart.com\/store\/189\/kirksville-mo\/details"
  },
  {
    "storeId":183,
    "store":"Baytown Supercenter",
    "city":"Baytown",
    "state":"TX",
    "country":"US",
    "lat":29.7763429,
    "lng":-94.9743933,
    "url":"https:\/\/www.walmart.com\/store\/194\/baytown-tx\/details"
  },
  {
    "storeId":184,
    "store":"Excelsior Springs Supercenter",
    "city":"Excelsior Springs",
    "state":"MO",
    "country":"US",
    "lat":39.329466,
    "lng":-94.265105,
    "url":"https:\/\/www.walmart.com\/store\/195\/excelsior-springs-mo\/details"
  },
  {
    "storeId":185,
    "store":"Columbia Supercenter",
    "city":"Columbia",
    "state":"TN",
    "country":"US",
    "lat":35.5989735,
    "lng":-87.0513091,
    "url":"https:\/\/www.walmart.com\/store\/192\/columbia-tn\/details"
  },
  {
    "storeId":186,
    "store":"Carbondale Supercenter",
    "city":"Carbondale",
    "state":"IL",
    "country":"US",
    "lat":37.738565,
    "lng":-89.186886,
    "url":"https:\/\/www.walmart.com\/store\/196\/carbondale-il\/details"
  },
  {
    "storeId":187,
    "store":"Kennett Supercenter",
    "city":"Kennett",
    "state":"MO",
    "country":"US",
    "lat":36.238808,
    "lng":-90.037563,
    "url":"https:\/\/www.walmart.com\/store\/190\/kennett-mo\/details"
  },
  {
    "storeId":188,
    "store":"Salem Supercenter",
    "city":"Salem",
    "state":"IL",
    "country":"US",
    "lat":38.625999,
    "lng":-88.98129,
    "url":"https:\/\/www.walmart.com\/store\/198\/salem-il\/details"
  },
  {
    "storeId":189,
    "store":"Lincoln Supercenter",
    "city":"Lincoln",
    "state":"IL",
    "country":"US",
    "lat":40.154263,
    "lng":-89.398031,
    "url":"https:\/\/www.walmart.com\/store\/199\/lincoln-il\/details"
  },
  {
    "storeId":190,
    "store":"Macomb Supercenter",
    "city":"Macomb",
    "state":"IL",
    "country":"US",
    "lat":40.461079,
    "lng":-90.641514,
    "url":"https:\/\/www.walmart.com\/store\/197\/macomb-il\/details"
  },
  {
    "storeId":191,
    "store":"Belleville Supercenter",
    "city":"Belleville",
    "state":"IL",
    "country":"US",
    "lat":38.522079,
    "lng":-89.922955,
    "url":"https:\/\/www.walmart.com\/store\/201\/belleville-il\/details"
  },
  {
    "storeId":192,
    "store":"Princeton Supercenter",
    "city":"Princeton",
    "state":"KY",
    "country":"US",
    "lat":37.11071,
    "lng":-87.918332,
    "url":"https:\/\/www.walmart.com\/store\/204\/princeton-ky\/details"
  },
  {
    "storeId":193,
    "store":"Jacksonville Supercenter",
    "city":"Jacksonville",
    "state":"IL",
    "country":"US",
    "lat":39.71992,
    "lng":-90.270971,
    "url":"https:\/\/www.walmart.com\/store\/200\/jacksonville-il\/details"
  },
  {
    "storeId":194,
    "store":"Mckinney Supercenter",
    "city":"Mckinney",
    "state":"TX",
    "country":"US",
    "lat":33.222075,
    "lng":-96.629963,
    "url":"https:\/\/www.walmart.com\/store\/206\/mckinney-tx\/details"
  },
  {
    "storeId":195,
    "store":"Brookfield Supercenter",
    "city":"Brookfield",
    "state":"MO",
    "country":"US",
    "lat":39.767807,
    "lng":-93.072718,
    "url":"https:\/\/www.walmart.com\/store\/203\/brookfield-mo\/details"
  },
  {
    "storeId":196,
    "store":"Philadelphia Supercenter",
    "city":"Philadelphia",
    "state":"MS",
    "country":"US",
    "lat":32.7675247,
    "lng":-89.1275641,
    "url":"https:\/\/www.walmart.com\/store\/205\/philadelphia-ms\/details"
  },
  {
    "storeId":197,
    "store":"Cleveland Supercenter",
    "city":"Cleveland",
    "state":"OK",
    "country":"US",
    "lat":36.297466,
    "lng":-96.463165,
    "url":"https:\/\/www.walmart.com\/store\/207\/cleveland-ok\/details"
  },
  {
    "storeId":198,
    "store":"Ozark Store",
    "city":"Ozark",
    "state":"AR",
    "country":"US",
    "lat":35.503711,
    "lng":-93.84385,
    "url":"https:\/\/www.walmart.com\/store\/209\/ozark-ar\/details"
  },
  {
    "storeId":199,
    "store":"Holdenville Store",
    "city":"Holdenville",
    "state":"OK",
    "country":"US",
    "lat":35.088093,
    "lng":-96.381422,
    "url":"https:\/\/www.walmart.com\/store\/210\/holdenville-ok\/details"
  },
  {
    "storeId":200,
    "store":"Hillsboro Supercenter",
    "city":"Hillsboro",
    "state":"TX",
    "country":"US",
    "lat":32.004274,
    "lng":-97.099919,
    "url":"https:\/\/www.walmart.com\/store\/211\/hillsboro-tx\/details"
  },
  {
    "storeId":201,
    "store":"Litchfield Supercenter",
    "city":"Litchfield",
    "state":"IL",
    "country":"US",
    "lat":39.185505,
    "lng":-89.668379,
    "url":"https:\/\/www.walmart.com\/store\/213\/litchfield-il\/details"
  },
  {
    "storeId":202,
    "store":"Jasper Supercenter",
    "city":"Jasper",
    "state":"TX",
    "country":"US",
    "lat":30.908235,
    "lng":-94.015462,
    "url":"https:\/\/www.walmart.com\/store\/214\/jasper-tx\/details"
  },
  {
    "storeId":203,
    "store":"Norman Supercenter",
    "city":"Norman",
    "state":"OK",
    "country":"US",
    "lat":35.221587,
    "lng":-97.481153,
    "url":"https:\/\/www.walmart.com\/store\/212\/norman-ok\/details"
  },
  {
    "storeId":204,
    "store":"Selmer Supercenter",
    "city":"Selmer",
    "state":"TN",
    "country":"US",
    "lat":35.1396272,
    "lng":-88.5742543,
    "url":"https:\/\/www.walmart.com\/store\/218\/selmer-tn\/details"
  },
  {
    "storeId":205,
    "store":"Lewisville Supercenter",
    "city":"Lewisville",
    "state":"TX",
    "country":"US",
    "lat":33.047228,
    "lng":-97.013954,
    "url":"https:\/\/www.walmart.com\/store\/217\/lewisville-tx\/details"
  },
  {
    "storeId":206,
    "store":"Sedalia Supercenter",
    "city":"Sedalia",
    "state":"MO",
    "country":"US",
    "lat":38.706715,
    "lng":-93.270907,
    "url":"https:\/\/www.walmart.com\/store\/219\/sedalia-mo\/details"
  },
  {
    "storeId":207,
    "store":"Marion Supercenter",
    "city":"Marion",
    "state":"IL",
    "country":"US",
    "lat":37.748171,
    "lng":-88.971464,
    "url":"https:\/\/www.walmart.com\/store\/216\/marion-il\/details"
  },
  {
    "storeId":208,
    "store":"Yukon Supercenter",
    "city":"Yukon",
    "state":"OK",
    "country":"US",
    "lat":35.490376,
    "lng":-97.763836,
    "url":"https:\/\/www.walmart.com\/store\/221\/yukon-ok\/details"
  },
  {
    "storeId":209,
    "store":"Mount Vernon Supercenter",
    "city":"Mount Vernon",
    "state":"IL",
    "country":"US",
    "lat":38.309085,
    "lng":-88.958411,
    "url":"https:\/\/www.walmart.com\/store\/224\/mount-vernon-il\/details"
  },
  {
    "storeId":210,
    "store":"Burleson Supercenter",
    "city":"Burleson",
    "state":"TX",
    "country":"US",
    "lat":32.527749,
    "lng":-97.337823,
    "url":"https:\/\/www.walmart.com\/store\/220\/burleson-tx\/details"
  },
  {
    "storeId":211,
    "store":"Sparta Supercenter",
    "city":"Sparta",
    "state":"IL",
    "country":"US",
    "lat":38.1414384,
    "lng":-89.7017327,
    "url":"https:\/\/www.walmart.com\/store\/222\/sparta-il\/details"
  },
  {
    "storeId":212,
    "store":"Sulphur Supercenter",
    "city":"Sulphur",
    "state":"OK",
    "country":"US",
    "lat":34.5038374,
    "lng":-97.0041868,
    "url":"https:\/\/www.walmart.com\/store\/225\/sulphur-ok\/details"
  },
  {
    "storeId":213,
    "store":"Atlanta Supercenter",
    "city":"Atlanta",
    "state":"TX",
    "country":"US",
    "lat":33.115504,
    "lng":-94.184857,
    "url":"https:\/\/www.walmart.com\/store\/226\/atlanta-tx\/details"
  },
  {
    "storeId":214,
    "store":"El Reno Supercenter",
    "city":"El Reno",
    "state":"OK",
    "country":"US",
    "lat":35.511165,
    "lng":-97.976009,
    "url":"https:\/\/www.walmart.com\/store\/227\/el-reno-ok\/details"
  },
  {
    "storeId":215,
    "store":"Trumann Supercenter",
    "city":"Trumann",
    "state":"AR",
    "country":"US",
    "lat":35.681492,
    "lng":-90.549868,
    "url":"https:\/\/www.walmart.com\/store\/229\/trumann-ar\/details"
  },
  {
    "storeId":216,
    "store":"Cleburne Supercenter",
    "city":"Cleburne",
    "state":"TX",
    "country":"US",
    "lat":32.341355,
    "lng":-97.41514,
    "url":"https:\/\/www.walmart.com\/store\/228\/cleburne-tx\/details"
  },
  {
    "storeId":217,
    "store":"Ada Supercenter",
    "city":"Ada",
    "state":"OK",
    "country":"US",
    "lat":34.789127,
    "lng":-96.65614,
    "url":"https:\/\/www.walmart.com\/store\/231\/ada-ok\/details"
  },
  {
    "storeId":218,
    "store":"Paris Store",
    "city":"Paris",
    "state":"AR",
    "country":"US",
    "lat":35.293369,
    "lng":-93.716195,
    "url":"https:\/\/www.walmart.com\/store\/230\/paris-ar\/details"
  },
  {
    "storeId":219,
    "store":"Anna Supercenter",
    "city":"Anna",
    "state":"IL",
    "country":"US",
    "lat":37.461908,
    "lng":-89.222998,
    "url":"https:\/\/www.walmart.com\/store\/233\/anna-il\/details"
  },
  {
    "storeId":220,
    "store":"Atoka Store",
    "city":"Atoka",
    "state":"OK",
    "country":"US",
    "lat":34.3662191,
    "lng":-96.1426364,
    "url":"https:\/\/www.walmart.com\/store\/232\/atoka-ok\/details"
  },
  {
    "storeId":221,
    "store":"Kansas City Supercenter",
    "city":"Kansas City",
    "state":"MO",
    "country":"US",
    "lat":39.243164,
    "lng":-94.459216,
    "url":"https:\/\/www.walmart.com\/store\/234\/kansas-city-mo\/details"
  },
  {
    "storeId":222,
    "store":"Pulaski Supercenter",
    "city":"Pulaski",
    "state":"TN",
    "country":"US",
    "lat":35.201555,
    "lng":-87.060372,
    "url":"https:\/\/www.walmart.com\/store\/238\/pulaski-tn\/details"
  },
  {
    "storeId":223,
    "store":"Commerce Supercenter",
    "city":"Commerce",
    "state":"TX",
    "country":"US",
    "lat":33.234935,
    "lng":-95.914764,
    "url":"https:\/\/www.walmart.com\/store\/240\/commerce-tx\/details"
  },
  {
    "storeId":224,
    "store":"Rogers Gas Station",
    "city":"Rogers",
    "state":"AR",
    "country":"US",
    "lat":36.280919,
    "lng":-94.151696,
    "url":"https:\/\/www.walmart.com\/store\/241\/rogers-ar\/details"
  },
  {
    "storeId":225,
    "store":"Kosciusko Supercenter",
    "city":"Kosciusko",
    "state":"MS",
    "country":"US",
    "lat":33.0549039,
    "lng":-89.5669509,
    "url":"https:\/\/www.walmart.com\/store\/239\/kosciusko-ms\/details"
  },
  {
    "storeId":226,
    "store":"Crockett Supercenter",
    "city":"Crockett",
    "state":"TX",
    "country":"US",
    "lat":31.320306,
    "lng":-95.434461,
    "url":"https:\/\/www.walmart.com\/store\/236\/crockett-tx\/details"
  },
  {
    "storeId":227,
    "store":"Harrisburg Supercenter",
    "city":"Harrisburg",
    "state":"IL",
    "country":"US",
    "lat":37.7282525,
    "lng":-88.532915,
    "url":"https:\/\/www.walmart.com\/store\/237\/harrisburg-il\/details"
  },
  {
    "storeId":228,
    "store":"Paola Supercenter",
    "city":"Paola",
    "state":"KS",
    "country":"US",
    "lat":38.573605,
    "lng":-94.857295,
    "url":"https:\/\/www.walmart.com\/store\/242\/paola-ks\/details"
  },
  {
    "storeId":229,
    "store":"Winnfield Supercenter",
    "city":"Winnfield",
    "state":"LA",
    "country":"US",
    "lat":31.950346,
    "lng":-92.656886,
    "url":"https:\/\/www.walmart.com\/store\/244\/winnfield-la\/details"
  },
  {
    "storeId":230,
    "store":"Wentzville Supercenter",
    "city":"Wentzville",
    "state":"MO",
    "country":"US",
    "lat":38.814137,
    "lng":-90.879016,
    "url":"https:\/\/www.walmart.com\/store\/243\/wentzville-mo\/details"
  },
  {
    "storeId":231,
    "store":"Crowley Gas Station",
    "city":"Crowley",
    "state":"TX",
    "country":"US",
    "lat":32.576633,
    "lng":-97.336527,
    "url":"https:\/\/www.walmart.com\/store\/245\/crowley-tx\/details"
  },
  {
    "storeId":232,
    "store":"Henryetta Store",
    "city":"Henryetta",
    "state":"OK",
    "country":"US",
    "lat":35.438882,
    "lng":-95.974421,
    "url":"https:\/\/www.walmart.com\/store\/247\/henryetta-ok\/details"
  },
  {
    "storeId":233,
    "store":"Cleveland Supercenter",
    "city":"Cleveland",
    "state":"TX",
    "country":"US",
    "lat":30.333624,
    "lng":-95.098051,
    "url":"https:\/\/www.walmart.com\/store\/249\/cleveland-tx\/details"
  },
  {
    "storeId":234,
    "store":"Mexia Supercenter",
    "city":"Mexia",
    "state":"TX",
    "country":"US",
    "lat":31.683347,
    "lng":-96.456538,
    "url":"https:\/\/www.walmart.com\/store\/248\/mexia-tx\/details"
  },
  {
    "storeId":235,
    "store":"Warsaw Supercenter",
    "city":"Warsaw",
    "state":"MO",
    "country":"US",
    "lat":38.26173,
    "lng":-93.3713094,
    "url":"https:\/\/www.walmart.com\/store\/250\/warsaw-mo\/details"
  },
  {
    "storeId":236,
    "store":"Skiatook Supercenter",
    "city":"Skiatook",
    "state":"OK",
    "country":"US",
    "lat":36.370696,
    "lng":-96.01132,
    "url":"https:\/\/www.walmart.com\/store\/246\/skiatook-ok\/details"
  },
  {
    "storeId":237,
    "store":"Mineola Supercenter",
    "city":"Mineola",
    "state":"TX",
    "country":"US",
    "lat":32.689696,
    "lng":-95.481768,
    "url":"https:\/\/www.walmart.com\/store\/251\/mineola-tx\/details"
  },
  {
    "storeId":238,
    "store":"Du Quoin Supercenter",
    "city":"Du Quoin",
    "state":"IL",
    "country":"US",
    "lat":37.997658,
    "lng":-89.238137,
    "url":"https:\/\/www.walmart.com\/store\/252\/du-quoin-il\/details"
  },
  {
    "storeId":239,
    "store":"Jerseyville Supercenter",
    "city":"Jerseyville",
    "state":"IL",
    "country":"US",
    "lat":39.103491,
    "lng":-90.318482,
    "url":"https:\/\/www.walmart.com\/store\/253\/jerseyville-il\/details"
  },
  {
    "storeId":240,
    "store":"Olney Supercenter",
    "city":"Olney",
    "state":"IL",
    "country":"US",
    "lat":38.749971,
    "lng":-88.097805,
    "url":"https:\/\/www.walmart.com\/store\/254\/olney-il\/details"
  },
  {
    "storeId":241,
    "store":"Tupelo Supercenter",
    "city":"Tupelo",
    "state":"MS",
    "country":"US",
    "lat":34.308824,
    "lng":-88.709889,
    "url":"https:\/\/www.walmart.com\/store\/258\/tupelo-ms\/details"
  },
  {
    "storeId":242,
    "store":"Rockwall Supercenter",
    "city":"Rockwall",
    "state":"TX",
    "country":"US",
    "lat":32.902041,
    "lng":-96.461769,
    "url":"https:\/\/www.walmart.com\/store\/259\/rockwall-tx\/details"
  },
  {
    "storeId":243,
    "store":"Morganfield Supercenter",
    "city":"Morganfield",
    "state":"KY",
    "country":"US",
    "lat":37.688625,
    "lng":-87.900008,
    "url":"https:\/\/www.walmart.com\/store\/257\/morganfield-ky\/details"
  },
  {
    "storeId":244,
    "store":"Waxahachie Supercenter",
    "city":"Waxahachie",
    "state":"TX",
    "country":"US",
    "lat":32.416996,
    "lng":-96.837937,
    "url":"https:\/\/www.walmart.com\/store\/260\/waxahachie-tx\/details"
  },
  {
    "storeId":245,
    "store":"Hot Springs Supercenter",
    "city":"Hot Springs",
    "state":"AR",
    "country":"US",
    "lat":34.454531,
    "lng":-93.060534,
    "url":"https:\/\/www.walmart.com\/store\/261\/hot-springs-ar\/details"
  },
  {
    "storeId":246,
    "store":"Glen Carbon Supercenter",
    "city":"Glen Carbon",
    "state":"IL",
    "country":"US",
    "lat":38.7753749,
    "lng":-89.952569,
    "url":"https:\/\/www.walmart.com\/store\/256\/glen-carbon-il\/details"
  },
  {
    "storeId":247,
    "store":"Benton Supercenter",
    "city":"Benton",
    "state":"IL",
    "country":"US",
    "lat":38.000853,
    "lng":-88.93678,
    "url":"https:\/\/www.walmart.com\/store\/262\/benton-il\/details"
  },
  {
    "storeId":248,
    "store":"Terrell Supercenter",
    "city":"Terrell",
    "state":"TX",
    "country":"US",
    "lat":32.739723,
    "lng":-96.306024,
    "url":"https:\/\/www.walmart.com\/store\/265\/terrell-tx\/details"
  },
  {
    "storeId":249,
    "store":"Grapevine Supercenter",
    "city":"Grapevine",
    "state":"TX",
    "country":"US",
    "lat":32.930782,
    "lng":-97.1017,
    "url":"https:\/\/www.walmart.com\/store\/266\/grapevine-tx\/details"
  },
  {
    "storeId":250,
    "store":"Savannah Supercenter",
    "city":"Savannah",
    "state":"TN",
    "country":"US",
    "lat":35.2239804,
    "lng":-88.2147838,
    "url":"https:\/\/www.walmart.com\/store\/268\/savannah-tn\/details"
  },
  {
    "storeId":251,
    "store":"Dickson Supercenter",
    "city":"Dickson",
    "state":"TN",
    "country":"US",
    "lat":36.0599933,
    "lng":-87.3812037,
    "url":"https:\/\/www.walmart.com\/store\/264\/dickson-tn\/details"
  },
  {
    "storeId":252,
    "store":"Bowie Supercenter",
    "city":"Bowie",
    "state":"TX",
    "country":"US",
    "lat":33.540549,
    "lng":-97.837408,
    "url":"https:\/\/www.walmart.com\/store\/271\/bowie-tx\/details"
  },
  {
    "storeId":253,
    "store":"Lawton Supercenter",
    "city":"Lawton",
    "state":"OK",
    "country":"US",
    "lat":34.618772,
    "lng":-98.42438,
    "url":"https:\/\/www.walmart.com\/store\/269\/lawton-ok\/details"
  },
  {
    "storeId":254,
    "store":"Franklin Supercenter",
    "city":"Franklin",
    "state":"TN",
    "country":"US",
    "lat":35.93902,
    "lng":-86.819155,
    "url":"https:\/\/www.walmart.com\/store\/272\/franklin-tn\/details"
  },
  {
    "storeId":255,
    "store":"Fulton Supercenter",
    "city":"Fulton",
    "state":"MS",
    "country":"US",
    "lat":34.2420797,
    "lng":-88.3972337,
    "url":"https:\/\/www.walmart.com\/store\/273\/fulton-ms\/details"
  },
  {
    "storeId":256,
    "store":"Webb City Supercenter",
    "city":"Webb City",
    "state":"MO",
    "country":"US",
    "lat":37.133514,
    "lng":-94.478384,
    "url":"https:\/\/www.walmart.com\/store\/267\/webb-city-mo\/details"
  },
  {
    "storeId":257,
    "store":"Iuka Store",
    "city":"Iuka",
    "state":"MS",
    "country":"US",
    "lat":34.80428,
    "lng":-88.20453,
    "url":"https:\/\/www.walmart.com\/store\/274\/iuka-ms\/details"
  },
  {
    "storeId":258,
    "store":"Livingston Supercenter",
    "city":"Livingston",
    "state":"TX",
    "country":"US",
    "lat":30.716174,
    "lng":-94.954755,
    "url":"https:\/\/www.walmart.com\/store\/275\/livingston-tx\/details"
  },
  {
    "storeId":259,
    "store":"Stigler Supercenter",
    "city":"Stigler",
    "state":"OK",
    "country":"US",
    "lat":35.2523274,
    "lng":-95.1084185,
    "url":"https:\/\/www.walmart.com\/store\/276\/stigler-ok\/details"
  },
  {
    "storeId":260,
    "store":"Shreveport Supercenter",
    "city":"Shreveport",
    "state":"LA",
    "country":"US",
    "lat":32.42845,
    "lng":-93.712166,
    "url":"https:\/\/www.walmart.com\/store\/278\/shreveport-la\/details"
  },
  {
    "storeId":261,
    "store":"Heber Spgs Supercenter",
    "city":"Heber Spgs",
    "state":"AR",
    "country":"US",
    "lat":35.507388,
    "lng":-92.032234,
    "url":"https:\/\/www.walmart.com\/store\/281\/heber-spgs-ar\/details"
  },
  {
    "storeId":262,
    "store":"De Queen Supercenter",
    "city":"De Queen",
    "state":"AR",
    "country":"US",
    "lat":34.043471,
    "lng":-94.319058,
    "url":"https:\/\/www.walmart.com\/store\/279\/de-queen-ar\/details"
  },
  {
    "storeId":263,
    "store":"Moore Supercenter",
    "city":"Moore",
    "state":"OK",
    "country":"US",
    "lat":35.322508,
    "lng":-97.493008,
    "url":"https:\/\/www.walmart.com\/store\/277\/moore-ok\/details"
  },
  {
    "storeId":264,
    "store":"Rockdale Supercenter",
    "city":"Rockdale",
    "state":"TX",
    "country":"US",
    "lat":30.642342,
    "lng":-97.03214,
    "url":"https:\/\/www.walmart.com\/store\/280\/rockdale-tx\/details"
  },
  {
    "storeId":265,
    "store":"Franklin Supercenter",
    "city":"Franklin",
    "state":"KY",
    "country":"US",
    "lat":36.694977,
    "lng":-86.573045,
    "url":"https:\/\/www.walmart.com\/store\/282\/franklin-ky\/details"
  },
  {
    "storeId":266,
    "store":"Bridge City Store",
    "city":"Bridge City",
    "state":"TX",
    "country":"US",
    "lat":30.024796,
    "lng":-93.844527,
    "url":"https:\/\/www.walmart.com\/store\/283\/bridge-city-tx\/details"
  },
  {
    "storeId":267,
    "store":"Mansfield Supercenter",
    "city":"Mansfield",
    "state":"TX",
    "country":"US",
    "lat":32.576044,
    "lng":-97.130022,
    "url":"https:\/\/www.walmart.com\/store\/284\/mansfield-tx\/details"
  },
  {
    "storeId":268,
    "store":"Huntsville Supercenter",
    "city":"Huntsville",
    "state":"TX",
    "country":"US",
    "lat":30.713817,
    "lng":-95.570575,
    "url":"https:\/\/www.walmart.com\/store\/285\/huntsville-tx\/details"
  },
  {
    "storeId":269,
    "store":"Jasper Supercenter",
    "city":"Jasper",
    "state":"AL",
    "country":"US",
    "lat":33.8429292,
    "lng":-87.254431,
    "url":"https:\/\/www.walmart.com\/store\/287\/jasper-al\/details"
  },
  {
    "storeId":270,
    "store":"Mcgehee Store",
    "city":"Mcgehee",
    "state":"AR",
    "country":"US",
    "lat":33.604067,
    "lng":-91.381208,
    "url":"https:\/\/www.walmart.com\/store\/289\/mcgehee-ar\/details"
  },
  {
    "storeId":271,
    "store":"Woodville Supercenter",
    "city":"Woodville",
    "state":"TX",
    "country":"US",
    "lat":30.763779,
    "lng":-94.419491,
    "url":"https:\/\/www.walmart.com\/store\/288\/woodville-tx\/details"
  },
  {
    "storeId":272,
    "store":"Gonzales Supercenter",
    "city":"Gonzales",
    "state":"TX",
    "country":"US",
    "lat":29.5164259,
    "lng":-97.4491852,
    "url":"https:\/\/www.walmart.com\/store\/290\/gonzales-tx\/details"
  },
  {
    "storeId":273,
    "store":"Ennis Supercenter",
    "city":"Ennis",
    "state":"TX",
    "country":"US",
    "lat":32.333377,
    "lng":-96.620823,
    "url":"https:\/\/www.walmart.com\/store\/286\/ennis-tx\/details"
  },
  {
    "storeId":274,
    "store":"Lockhart Supercenter",
    "city":"Lockhart",
    "state":"TX",
    "country":"US",
    "lat":29.85698,
    "lng":-97.665477,
    "url":"https:\/\/www.walmart.com\/store\/292\/lockhart-tx\/details"
  },
  {
    "storeId":275,
    "store":"Navasota Store",
    "city":"Navasota",
    "state":"TX",
    "country":"US",
    "lat":30.394988,
    "lng":-96.071724,
    "url":"https:\/\/www.walmart.com\/store\/293\/navasota-tx\/details"
  },
  {
    "storeId":276,
    "store":"Dardanelle Supercenter",
    "city":"Dardanelle",
    "state":"AR",
    "country":"US",
    "lat":35.2179,
    "lng":-93.166461,
    "url":"https:\/\/www.walmart.com\/store\/296\/dardanelle-ar\/details"
  },
  {
    "storeId":277,
    "store":"Central City Supercenter",
    "city":"Central City",
    "state":"KY",
    "country":"US",
    "lat":37.271457,
    "lng":-87.144458,
    "url":"https:\/\/www.walmart.com\/store\/294\/central-city-ky\/details"
  },
  {
    "storeId":278,
    "store":"Eureka Supercenter",
    "city":"Eureka",
    "state":"MO",
    "country":"US",
    "lat":38.50661,
    "lng":-90.656737,
    "url":"https:\/\/www.walmart.com\/store\/295\/eureka-mo\/details"
  },
  {
    "storeId":279,
    "store":"Porter Supercenter",
    "city":"Porter",
    "state":"TX",
    "country":"US",
    "lat":30.106968,
    "lng":-95.233615,
    "url":"https:\/\/www.walmart.com\/store\/297\/porter-tx\/details"
  },
  {
    "storeId":280,
    "store":"Boaz Supercenter",
    "city":"Boaz",
    "state":"AL",
    "country":"US",
    "lat":34.214766,
    "lng":-86.153387,
    "url":"https:\/\/www.walmart.com\/store\/298\/boaz-al\/details"
  },
  {
    "storeId":281,
    "store":"Bowling Green Supercenter",
    "city":"Bowling Green",
    "state":"KY",
    "country":"US",
    "lat":36.948807,
    "lng":-86.433446,
    "url":"https:\/\/www.walmart.com\/store\/299\/bowling-green-ky\/details"
  },
  {
    "storeId":282,
    "store":"Murphysboro Supercenter",
    "city":"Murphysboro",
    "state":"IL",
    "country":"US",
    "lat":37.759516,
    "lng":-89.28315,
    "url":"https:\/\/www.walmart.com\/store\/302\/murphysboro-il\/details"
  },
  {
    "storeId":283,
    "store":"Gadsden Supercenter",
    "city":"Gadsden",
    "state":"AL",
    "country":"US",
    "lat":34.012769,
    "lng":-85.987031,
    "url":"https:\/\/www.walmart.com\/store\/301\/gadsden-al\/details"
  },
  {
    "storeId":284,
    "store":"Springfield Supercenter",
    "city":"Springfield",
    "state":"TN",
    "country":"US",
    "lat":36.483717,
    "lng":-86.888493,
    "url":"https:\/\/www.walmart.com\/store\/304\/springfield-tn\/details"
  },
  {
    "storeId":285,
    "store":"Holly Springs Supercenter",
    "city":"Holly Springs",
    "state":"MS",
    "country":"US",
    "lat":34.7466316,
    "lng":-89.459003,
    "url":"https:\/\/www.walmart.com\/store\/303\/holly-springs-ms\/details"
  },
  {
    "storeId":286,
    "store":"Arab Supercenter",
    "city":"Arab",
    "state":"AL",
    "country":"US",
    "lat":34.341887,
    "lng":-86.500136,
    "url":"https:\/\/www.walmart.com\/store\/306\/arab-al\/details"
  },
  {
    "storeId":287,
    "store":"West Monroe Supercenter",
    "city":"West Monroe",
    "state":"LA",
    "country":"US",
    "lat":32.508119,
    "lng":-92.154337,
    "url":"https:\/\/www.walmart.com\/store\/307\/west-monroe-la\/details"
  },
  {
    "storeId":288,
    "store":"Carthage Supercenter",
    "city":"Carthage",
    "state":"MS",
    "country":"US",
    "lat":32.7258051,
    "lng":-89.5474174,
    "url":"https:\/\/www.walmart.com\/store\/305\/carthage-ms\/details"
  },
  {
    "storeId":289,
    "store":"Abbeville Supercenter",
    "city":"Abbeville",
    "state":"LA",
    "country":"US",
    "lat":29.972971,
    "lng":-92.095051,
    "url":"https:\/\/www.walmart.com\/store\/309\/abbeville-la\/details"
  },
  {
    "storeId":290,
    "store":"Manchester Supercenter",
    "city":"Manchester",
    "state":"TN",
    "country":"US",
    "lat":35.452676,
    "lng":-86.047354,
    "url":"https:\/\/www.walmart.com\/store\/308\/manchester-tn\/details"
  },
  {
    "storeId":291,
    "store":"Crowley Supercenter",
    "city":"Crowley",
    "state":"LA",
    "country":"US",
    "lat":30.233198,
    "lng":-92.36465,
    "url":"https:\/\/www.walmart.com\/store\/310\/crowley-la\/details"
  },
  {
    "storeId":292,
    "store":"Jacksonville Supercenter",
    "city":"Jacksonville",
    "state":"AL",
    "country":"US",
    "lat":33.78822,
    "lng":-85.765028,
    "url":"https:\/\/www.walmart.com\/store\/300\/jacksonville-al\/details"
  },
  {
    "storeId":293,
    "store":"Franklin Store",
    "city":"Franklin",
    "state":"LA",
    "country":"US",
    "lat":29.814155,
    "lng":-91.51306,
    "url":"https:\/\/www.walmart.com\/store\/311\/franklin-la\/details"
  },
  {
    "storeId":294,
    "store":"High Ridge Supercenter",
    "city":"High Ridge",
    "state":"MO",
    "country":"US",
    "lat":38.462144,
    "lng":-90.521836,
    "url":"https:\/\/www.walmart.com\/store\/313\/high-ridge-mo\/details"
  },
  {
    "storeId":295,
    "store":"Fayetteville Supercenter",
    "city":"Fayetteville",
    "state":"TN",
    "country":"US",
    "lat":35.136734,
    "lng":-86.564496,
    "url":"https:\/\/www.walmart.com\/store\/314\/fayetteville-tn\/details"
  },
  {
    "storeId":296,
    "store":"Ville Platte Supercenter",
    "city":"Ville Platte",
    "state":"LA",
    "country":"US",
    "lat":30.687254,
    "lng":-92.260969,
    "url":"https:\/\/www.walmart.com\/store\/312\/ville-platte-la\/details"
  },
  {
    "storeId":297,
    "store":"Vandalia Supercenter",
    "city":"Vandalia",
    "state":"IL",
    "country":"US",
    "lat":38.966414,
    "lng":-89.135519,
    "url":"https:\/\/www.walmart.com\/store\/317\/vandalia-il\/details"
  },
  {
    "storeId":298,
    "store":"Arkadelphia Supercenter",
    "city":"Arkadelphia",
    "state":"AR",
    "country":"US",
    "lat":34.119797,
    "lng":-93.096488,
    "url":"https:\/\/www.walmart.com\/store\/318\/arkadelphia-ar\/details"
  },
  {
    "storeId":299,
    "store":"Raymore Supercenter",
    "city":"Raymore",
    "state":"MO",
    "country":"US",
    "lat":38.809975,
    "lng":-94.495531,
    "url":"https:\/\/www.walmart.com\/store\/319\/raymore-mo\/details"
  },
  {
    "storeId":300,
    "store":"Attalla Supercenter",
    "city":"Attalla",
    "state":"AL",
    "country":"US",
    "lat":33.993612,
    "lng":-86.093629,
    "url":"https:\/\/www.walmart.com\/store\/316\/attalla-al\/details"
  },
  {
    "storeId":301,
    "store":"Marlin Store",
    "city":"Marlin",
    "state":"TX",
    "country":"US",
    "lat":31.304425,
    "lng":-96.876786,
    "url":"https:\/\/www.walmart.com\/store\/320\/marlin-tx\/details"
  },
  {
    "storeId":302,
    "store":"Oneonta Supercenter",
    "city":"Oneonta",
    "state":"AL",
    "country":"US",
    "lat":33.971218,
    "lng":-86.446599,
    "url":"https:\/\/www.walmart.com\/store\/315\/oneonta-al\/details"
  },
  {
    "storeId":303,
    "store":"Bryan Supercenter",
    "city":"Bryan",
    "state":"TX",
    "country":"US",
    "lat":30.6574,
    "lng":-96.330396,
    "url":"https:\/\/www.walmart.com\/store\/322\/bryan-tx\/details"
  },
  {
    "storeId":304,
    "store":"Mansfield Supercenter",
    "city":"Mansfield",
    "state":"LA",
    "country":"US",
    "lat":32.052932,
    "lng":-93.68175,
    "url":"https:\/\/www.walmart.com\/store\/323\/mansfield-la\/details"
  },
  {
    "storeId":305,
    "store":"Brenham Supercenter",
    "city":"Brenham",
    "state":"TX",
    "country":"US",
    "lat":30.139992,
    "lng":-96.393143,
    "url":"https:\/\/www.walmart.com\/store\/321\/brenham-tx\/details"
  },
  {
    "storeId":306,
    "store":"Higginsville Store",
    "city":"Higginsville",
    "state":"MO",
    "country":"US",
    "lat":39.077943,
    "lng":-93.736752,
    "url":"https:\/\/www.walmart.com\/store\/326\/higginsville-mo\/details"
  },
  {
    "storeId":307,
    "store":"Bristow Supercenter",
    "city":"Bristow",
    "state":"OK",
    "country":"US",
    "lat":35.844007,
    "lng":-96.394808,
    "url":"https:\/\/www.walmart.com\/store\/324\/bristow-ok\/details"
  },
  {
    "storeId":308,
    "store":"Richmond Supercenter",
    "city":"Richmond",
    "state":"MO",
    "country":"US",
    "lat":39.263479,
    "lng":-93.963432,
    "url":"https:\/\/www.walmart.com\/store\/325\/richmond-mo\/details"
  },
  {
    "storeId":309,
    "store":"Jay Store",
    "city":"Jay",
    "state":"OK",
    "country":"US",
    "lat":36.419232,
    "lng":-94.806089,
    "url":"https:\/\/www.walmart.com\/store\/327\/jay-ok\/details"
  },
  {
    "storeId":310,
    "store":"Waterloo Supercenter",
    "city":"Waterloo",
    "state":"IL",
    "country":"US",
    "lat":38.358741,
    "lng":-90.157744,
    "url":"https:\/\/www.walmart.com\/store\/328\/waterloo-il\/details"
  },
  {
    "storeId":311,
    "store":"Anniston Supercenter",
    "city":"Anniston",
    "state":"AL",
    "country":"US",
    "lat":33.720093,
    "lng":-85.820134,
    "url":"https:\/\/www.walmart.com\/store\/329\/anniston-al\/details"
  },
  {
    "storeId":312,
    "store":"Huntsville Supercenter",
    "city":"Huntsville",
    "state":"AL",
    "country":"US",
    "lat":34.747008,
    "lng":-86.675822,
    "url":"https:\/\/www.walmart.com\/store\/332\/huntsville-al\/details"
  },
  {
    "storeId":313,
    "store":"Victoria Supercenter",
    "city":"Victoria",
    "state":"TX",
    "country":"US",
    "lat":28.877997,
    "lng":-96.993928,
    "url":"https:\/\/www.walmart.com\/store\/330\/victoria-tx\/details"
  },
  {
    "storeId":314,
    "store":"Jackson Supercenter",
    "city":"Jackson",
    "state":"TN",
    "country":"US",
    "lat":35.668347,
    "lng":-88.851516,
    "url":"https:\/\/www.walmart.com\/store\/335\/jackson-tn\/details"
  },
  {
    "storeId":315,
    "store":"Sulphur Supercenter",
    "city":"Sulphur",
    "state":"LA",
    "country":"US",
    "lat":30.233061,
    "lng":-93.328042,
    "url":"https:\/\/www.walmart.com\/store\/331\/sulphur-la\/details"
  },
  {
    "storeId":316,
    "store":"Beaver Dam Supercenter",
    "city":"Beaver Dam",
    "state":"KY",
    "country":"US",
    "lat":37.429567,
    "lng":-86.880124,
    "url":"https:\/\/www.walmart.com\/store\/333\/beaver-dam-ky\/details"
  },
  {
    "storeId":317,
    "store":"Carlinville Supercenter",
    "city":"Carlinville",
    "state":"IL",
    "country":"US",
    "lat":39.267994,
    "lng":-89.894417,
    "url":"https:\/\/www.walmart.com\/store\/334\/carlinville-il\/details"
  },
  {
    "storeId":318,
    "store":"Sheridan Supercenter",
    "city":"Sheridan",
    "state":"AR",
    "country":"US",
    "lat":34.291348,
    "lng":-92.397163,
    "url":"https:\/\/www.walmart.com\/store\/336\/sheridan-ar\/details"
  },
  {
    "storeId":319,
    "store":"Lamar Supercenter",
    "city":"Lamar",
    "state":"MO",
    "country":"US",
    "lat":37.497069,
    "lng":-94.302316,
    "url":"https:\/\/www.walmart.com\/store\/338\/lamar-mo\/details"
  },
  {
    "storeId":320,
    "store":"Fredericktown Supercenter",
    "city":"Fredericktown",
    "state":"MO",
    "country":"US",
    "lat":37.5589096,
    "lng":-90.3197291,
    "url":"https:\/\/www.walmart.com\/store\/337\/fredericktown-mo\/details"
  },
  {
    "storeId":321,
    "store":"Checotah Supercenter",
    "city":"Checotah",
    "state":"OK",
    "country":"US",
    "lat":35.470025,
    "lng":-95.534337,
    "url":"https:\/\/www.walmart.com\/store\/340\/checotah-ok\/details"
  },
  {
    "storeId":322,
    "store":"Fordyce Store",
    "city":"Fordyce",
    "state":"AR",
    "country":"US",
    "lat":33.820498,
    "lng":-92.435566,
    "url":"https:\/\/www.walmart.com\/store\/339\/fordyce-ar\/details"
  },
  {
    "storeId":323,
    "store":"Marysville Supercenter",
    "city":"Marysville",
    "state":"KS",
    "country":"US",
    "lat":39.843391,
    "lng":-96.605108,
    "url":"https:\/\/www.walmart.com\/store\/341\/marysville-ks\/details"
  },
  {
    "storeId":324,
    "store":"Hiawatha Supercenter",
    "city":"Hiawatha",
    "state":"KS",
    "country":"US",
    "lat":39.846387,
    "lng":-95.560036,
    "url":"https:\/\/www.walmart.com\/store\/342\/hiawatha-ks\/details"
  },
  {
    "storeId":325,
    "store":"Palestine Supercenter",
    "city":"Palestine",
    "state":"TX",
    "country":"US",
    "lat":31.736555,
    "lng":-95.616596,
    "url":"https:\/\/www.walmart.com\/store\/345\/palestine-tx\/details"
  },
  {
    "storeId":326,
    "store":"Monticello Supercenter",
    "city":"Monticello",
    "state":"AR",
    "country":"US",
    "lat":33.63588,
    "lng":-91.80475,
    "url":"https:\/\/www.walmart.com\/store\/348\/monticello-ar\/details"
  },
  {
    "storeId":327,
    "store":"Augusta Supercenter",
    "city":"Augusta",
    "state":"KS",
    "country":"US",
    "lat":37.677977,
    "lng":-96.987658,
    "url":"https:\/\/www.walmart.com\/store\/346\/augusta-ks\/details"
  },
  {
    "storeId":328,
    "store":"York Supercenter",
    "city":"York",
    "state":"NE",
    "country":"US",
    "lat":40.82787,
    "lng":-97.593326,
    "url":"https:\/\/www.walmart.com\/store\/350\/york-ne\/details"
  },
  {
    "storeId":329,
    "store":"Indianola Supercenter",
    "city":"Indianola",
    "state":"MS",
    "country":"US",
    "lat":33.459493,
    "lng":-90.663215,
    "url":"https:\/\/www.walmart.com\/store\/347\/indianola-ms\/details"
  },
  {
    "storeId":330,
    "store":"El Campo Supercenter",
    "city":"El Campo",
    "state":"TX",
    "country":"US",
    "lat":29.216807,
    "lng":-96.292641,
    "url":"https:\/\/www.walmart.com\/store\/344\/el-campo-tx\/details"
  },
  {
    "storeId":331,
    "store":"Taylorville Supercenter",
    "city":"Taylorville",
    "state":"IL",
    "country":"US",
    "lat":39.569337,
    "lng":-89.314967,
    "url":"https:\/\/www.walmart.com\/store\/343\/taylorville-il\/details"
  },
  {
    "storeId":332,
    "store":"Tomball Supercenter",
    "city":"Tomball",
    "state":"TX",
    "country":"US",
    "lat":30.134346,
    "lng":-95.550647,
    "url":"https:\/\/www.walmart.com\/store\/351\/tomball-tx\/details"
  },
  {
    "storeId":333,
    "store":"Chester Store",
    "city":"Chester",
    "state":"IL",
    "country":"US",
    "lat":37.925334,
    "lng":-89.804487,
    "url":"https:\/\/www.walmart.com\/store\/352\/chester-il\/details"
  },
  {
    "storeId":334,
    "store":"Graham Supercenter",
    "city":"Graham",
    "state":"TX",
    "country":"US",
    "lat":33.082267,
    "lng":-98.58074,
    "url":"https:\/\/www.walmart.com\/store\/353\/graham-tx\/details"
  },
  {
    "storeId":335,
    "store":"Owensville Supercenter",
    "city":"Owensville",
    "state":"MO",
    "country":"US",
    "lat":38.3531394,
    "lng":-91.4818482,
    "url":"https:\/\/www.walmart.com\/store\/354\/owensville-mo\/details"
  },
  {
    "storeId":336,
    "store":"Opelika Supercenter",
    "city":"Opelika",
    "state":"AL",
    "country":"US",
    "lat":32.637874,
    "lng":-85.421882,
    "url":"https:\/\/www.walmart.com\/store\/355\/opelika-al\/details"
  },
  {
    "storeId":337,
    "store":"Versailles Supercenter",
    "city":"Versailles",
    "state":"MO",
    "country":"US",
    "lat":38.4342477,
    "lng":-92.8588751,
    "url":"https:\/\/www.walmart.com\/store\/357\/versailles-mo\/details"
  },
  {
    "storeId":338,
    "store":"Auburn Supercenter",
    "city":"Auburn",
    "state":"AL",
    "country":"US",
    "lat":32.570858,
    "lng":-85.49657,
    "url":"https:\/\/www.walmart.com\/store\/356\/auburn-al\/details"
  },
  {
    "storeId":339,
    "store":"Alma Supercenter",
    "city":"Alma",
    "state":"AR",
    "country":"US",
    "lat":35.479083,
    "lng":-94.22879,
    "url":"https:\/\/www.walmart.com\/store\/358\/alma-ar\/details"
  },
  {
    "storeId":340,
    "store":"Collinsville Supercenter",
    "city":"Collinsville",
    "state":"IL",
    "country":"US",
    "lat":38.674715,
    "lng":-90.017291,
    "url":"https:\/\/www.walmart.com\/store\/361\/collinsville-il\/details"
  },
  {
    "storeId":341,
    "store":"Fayetteville Supercenter",
    "city":"Fayetteville",
    "state":"AR",
    "country":"US",
    "lat":36.122616,
    "lng":-94.15276,
    "url":"https:\/\/www.walmart.com\/store\/359\/fayetteville-ar\/details"
  },
  {
    "storeId":342,
    "store":"Winfield Supercenter",
    "city":"Winfield",
    "state":"AL",
    "country":"US",
    "lat":33.9352,
    "lng":-87.840615,
    "url":"https:\/\/www.walmart.com\/store\/362\/winfield-al\/details"
  },
  {
    "storeId":343,
    "store":"Marshall Supercenter",
    "city":"Marshall",
    "state":"MO",
    "country":"US",
    "lat":39.111569,
    "lng":-93.216447,
    "url":"https:\/\/www.walmart.com\/store\/363\/marshall-mo\/details"
  },
  {
    "storeId":344,
    "store":"Cushing Supercenter",
    "city":"Cushing",
    "state":"OK",
    "country":"US",
    "lat":35.987433,
    "lng":-96.721249,
    "url":"https:\/\/www.walmart.com\/store\/360\/cushing-ok\/details"
  },
  {
    "storeId":345,
    "store":"Madisonville Supercenter",
    "city":"Madisonville",
    "state":"TN",
    "country":"US",
    "lat":35.512288,
    "lng":-84.360078,
    "url":"https:\/\/www.walmart.com\/store\/366\/madisonville-tn\/details"
  },
  {
    "storeId":346,
    "store":"Pearl Supercenter",
    "city":"Pearl",
    "state":"MS",
    "country":"US",
    "lat":32.286656,
    "lng":-90.046349,
    "url":"https:\/\/www.walmart.com\/store\/365\/pearl-ms\/details"
  },
  {
    "storeId":347,
    "store":"Center Supercenter",
    "city":"Center",
    "state":"TX",
    "country":"US",
    "lat":31.80172,
    "lng":-94.194186,
    "url":"https:\/\/www.walmart.com\/store\/364\/center-tx\/details"
  },
  {
    "storeId":348,
    "store":"Parsons Supercenter",
    "city":"Parsons",
    "state":"KS",
    "country":"US",
    "lat":37.372299,
    "lng":-95.25583,
    "url":"https:\/\/www.walmart.com\/store\/368\/parsons-ks\/details"
  },
  {
    "storeId":349,
    "store":"Dodge City Supercenter",
    "city":"Dodge City",
    "state":"KS",
    "country":"US",
    "lat":37.768588,
    "lng":-100.035792,
    "url":"https:\/\/www.walmart.com\/store\/372\/dodge-city-ks\/details"
  },
  {
    "storeId":350,
    "store":"Winfield Supercenter",
    "city":"Winfield",
    "state":"KS",
    "country":"US",
    "lat":37.22725,
    "lng":-96.992729,
    "url":"https:\/\/www.walmart.com\/store\/369\/winfield-ks\/details"
  },
  {
    "storeId":351,
    "store":"Granbury Supercenter",
    "city":"Granbury",
    "state":"TX",
    "country":"US",
    "lat":32.432088,
    "lng":-97.780249,
    "url":"https:\/\/www.walmart.com\/store\/371\/granbury-tx\/details"
  },
  {
    "storeId":352,
    "store":"Wellington Supercenter",
    "city":"Wellington",
    "state":"KS",
    "country":"US",
    "lat":37.273436,
    "lng":-97.373226,
    "url":"https:\/\/www.walmart.com\/store\/370\/wellington-ks\/details"
  },
  {
    "storeId":353,
    "store":"Coweta Supercenter",
    "city":"Coweta",
    "state":"OK",
    "country":"US",
    "lat":36.001683,
    "lng":-95.677254,
    "url":"https:\/\/www.walmart.com\/store\/374\/coweta-ok\/details"
  },
  {
    "storeId":354,
    "store":"Huntsville Supercenter",
    "city":"Huntsville",
    "state":"AR",
    "country":"US",
    "lat":36.1128042,
    "lng":-93.7159682,
    "url":"https:\/\/www.walmart.com\/store\/373\/huntsville-ar\/details"
  },
  {
    "storeId":355,
    "store":"Bossier City Supercenter",
    "city":"Bossier City",
    "state":"LA",
    "country":"US",
    "lat":32.548268,
    "lng":-93.706324,
    "url":"https:\/\/www.walmart.com\/store\/376\/bossier-city-la\/details"
  },
  {
    "storeId":356,
    "store":"Sumter Neighborhood Market",
    "city":"Sumter",
    "state":"SC",
    "country":"US",
    "lat":33.906164,
    "lng":-80.378092,
    "url":"https:\/\/www.walmart.com\/store\/377\/sumter-sc\/details"
  },
  {
    "storeId":357,
    "store":"Huntsville Supercenter",
    "city":"Huntsville",
    "state":"AL",
    "country":"US",
    "lat":34.7030172,
    "lng":-86.5853922,
    "url":"https:\/\/www.walmart.com\/store\/375\/huntsville-al\/details"
  },
  {
    "storeId":358,
    "store":"Holton Supercenter",
    "city":"Holton",
    "state":"KS",
    "country":"US",
    "lat":39.460818,
    "lng":-95.751037,
    "url":"https:\/\/www.walmart.com\/store\/378\/holton-ks\/details"
  },
  {
    "storeId":359,
    "store":"Ozark Supercenter",
    "city":"Ozark",
    "state":"MO",
    "country":"US",
    "lat":37.001223,
    "lng":-93.22794,
    "url":"https:\/\/www.walmart.com\/store\/379\/ozark-mo\/details"
  },
  {
    "storeId":360,
    "store":"Silsbee Supercenter",
    "city":"Silsbee",
    "state":"TX",
    "country":"US",
    "lat":30.340472,
    "lng":-94.146959,
    "url":"https:\/\/www.walmart.com\/store\/383\/silsbee-tx\/details"
  },
  {
    "storeId":361,
    "store":"Ottawa Supercenter",
    "city":"Ottawa",
    "state":"KS",
    "country":"US",
    "lat":38.581196,
    "lng":-95.264337,
    "url":"https:\/\/www.walmart.com\/store\/382\/ottawa-ks\/details"
  },
  {
    "storeId":362,
    "store":"Lumberton Supercenter",
    "city":"Lumberton",
    "state":"TX",
    "country":"US",
    "lat":30.258479,
    "lng":-94.216602,
    "url":"https:\/\/www.walmart.com\/store\/384\/lumberton-tx\/details"
  },
  {
    "storeId":363,
    "store":"Chandler Supercenter",
    "city":"Chandler",
    "state":"OK",
    "country":"US",
    "lat":35.711749,
    "lng":-96.842036,
    "url":"https:\/\/www.walmart.com\/store\/387\/chandler-ok\/details"
  },
  {
    "storeId":364,
    "store":"Cuero Store",
    "city":"Cuero",
    "state":"TX",
    "country":"US",
    "lat":29.089432,
    "lng":-97.271237,
    "url":"https:\/\/www.walmart.com\/store\/385\/cuero-tx\/details"
  },
  {
    "storeId":365,
    "store":"Jennings Supercenter",
    "city":"Jennings",
    "state":"LA",
    "country":"US",
    "lat":30.244584,
    "lng":-92.659001,
    "url":"https:\/\/www.walmart.com\/store\/386\/jennings-la\/details"
  },
  {
    "storeId":366,
    "store":"Copperas Cove Supercenter",
    "city":"Copperas Cove",
    "state":"TX",
    "country":"US",
    "lat":31.118184,
    "lng":-97.870857,
    "url":"https:\/\/www.walmart.com\/store\/381\/copperas-cove-tx\/details"
  },
  {
    "storeId":367,
    "store":"Fort Smith Supercenter",
    "city":"Fort Smith",
    "state":"AR",
    "country":"US",
    "lat":35.399753,
    "lng":-94.363077,
    "url":"https:\/\/www.walmart.com\/store\/388\/fort-smith-ar\/details"
  },
  {
    "storeId":368,
    "store":"Waverly Supercenter",
    "city":"Waverly",
    "state":"TN",
    "country":"US",
    "lat":36.084335,
    "lng":-87.832573,
    "url":"https:\/\/www.walmart.com\/store\/390\/waverly-tn\/details"
  },
  {
    "storeId":369,
    "store":"Weatherford Supercenter",
    "city":"Weatherford",
    "state":"OK",
    "country":"US",
    "lat":35.524104,
    "lng":-98.690842,
    "url":"https:\/\/www.walmart.com\/store\/392\/weatherford-ok\/details"
  },
  {
    "storeId":370,
    "store":"Jackson Supercenter",
    "city":"Jackson",
    "state":"TN",
    "country":"US",
    "lat":35.551073,
    "lng":-88.810955,
    "url":"https:\/\/www.walmart.com\/store\/393\/jackson-tn\/details"
  },
  {
    "storeId":371,
    "store":"Tupelo Supercenter",
    "city":"Tupelo",
    "state":"MS",
    "country":"US",
    "lat":34.258167,
    "lng":-88.741172,
    "url":"https:\/\/www.walmart.com\/store\/391\/tupelo-ms\/details"
  },
  {
    "storeId":372,
    "store":"Edmond Supercenter",
    "city":"Edmond",
    "state":"OK",
    "country":"US",
    "lat":35.640173,
    "lng":-97.429241,
    "url":"https:\/\/www.walmart.com\/store\/389\/edmond-ok\/details"
  },
  {
    "storeId":373,
    "store":"Anderson Supercenter",
    "city":"Anderson",
    "state":"SC",
    "country":"US",
    "lat":34.554437,
    "lng":-82.6786822,
    "url":"https:\/\/www.walmart.com\/store\/396\/anderson-sc\/details"
  },
  {
    "storeId":374,
    "store":"Moulton Supercenter",
    "city":"Moulton",
    "state":"AL",
    "country":"US",
    "lat":34.4955794,
    "lng":-87.2769413,
    "url":"https:\/\/www.walmart.com\/store\/394\/moulton-al\/details"
  },
  {
    "storeId":375,
    "store":"Mission Supercenter",
    "city":"Mission",
    "state":"TX",
    "country":"US",
    "lat":26.193521,
    "lng":-98.2869487,
    "url":"https:\/\/www.walmart.com\/store\/395\/mission-tx\/details"
  },
  {
    "storeId":376,
    "store":"Longview Supercenter",
    "city":"Longview",
    "state":"TX",
    "country":"US",
    "lat":32.542098,
    "lng":-94.727504,
    "url":"https:\/\/www.walmart.com\/store\/398\/longview-tx\/details"
  },
  {
    "storeId":377,
    "store":"Mcallen Supercenter",
    "city":"Mcallen",
    "state":"TX",
    "country":"US",
    "lat":26.188376,
    "lng":-98.209872,
    "url":"https:\/\/www.walmart.com\/store\/397\/mcallen-tx\/details"
  },
  {
    "storeId":378,
    "store":"Longview Supercenter",
    "city":"Longview",
    "state":"TX",
    "country":"US",
    "lat":32.531894,
    "lng":-94.78483,
    "url":"https:\/\/www.walmart.com\/store\/399\/longview-tx\/details"
  },
  {
    "storeId":379,
    "store":"Conroe Supercenter",
    "city":"Conroe",
    "state":"TX",
    "country":"US",
    "lat":30.331402,
    "lng":-95.479103,
    "url":"https:\/\/www.walmart.com\/store\/400\/conroe-tx\/details"
  },
  {
    "storeId":380,
    "store":"Plaquemine Supercenter",
    "city":"Plaquemine",
    "state":"LA",
    "country":"US",
    "lat":30.263844,
    "lng":-91.254829,
    "url":"https:\/\/www.walmart.com\/store\/401\/plaquemine-la\/details"
  },
  {
    "storeId":381,
    "store":"Russellville Supercenter",
    "city":"Russellville",
    "state":"AL",
    "country":"US",
    "lat":34.495318,
    "lng":-87.728925,
    "url":"https:\/\/www.walmart.com\/store\/403\/russellville-al\/details"
  },
  {
    "storeId":382,
    "store":"Leesville Supercenter",
    "city":"Leesville",
    "state":"LA",
    "country":"US",
    "lat":31.118636,
    "lng":-93.274624,
    "url":"https:\/\/www.walmart.com\/store\/405\/leesville-la\/details"
  },
  {
    "storeId":383,
    "store":"San Marcos Supercenter",
    "city":"San Marcos",
    "state":"TX",
    "country":"US",
    "lat":29.8834396,
    "lng":-97.9121923,
    "url":"https:\/\/www.walmart.com\/store\/404\/san-marcos-tx\/details"
  },
  {
    "storeId":384,
    "store":"Smyrna Supercenter",
    "city":"Smyrna",
    "state":"TN",
    "country":"US",
    "lat":35.970935,
    "lng":-86.495862,
    "url":"https:\/\/www.walmart.com\/store\/406\/smyrna-tn\/details"
  },
  {
    "storeId":385,
    "store":"Killeen Supercenter",
    "city":"Killeen",
    "state":"TX",
    "country":"US",
    "lat":31.089533,
    "lng":-97.729372,
    "url":"https:\/\/www.walmart.com\/store\/407\/killeen-tx\/details"
  },
  {
    "storeId":386,
    "store":"Haleyville Supercenter",
    "city":"Haleyville",
    "state":"AL",
    "country":"US",
    "lat":34.2405233,
    "lng":-87.5987915,
    "url":"https:\/\/www.walmart.com\/store\/409\/haleyville-al\/details"
  },
  {
    "storeId":387,
    "store":"Breaux Bridge Supercenter",
    "city":"Breaux Bridge",
    "state":"LA",
    "country":"US",
    "lat":30.293263,
    "lng":-91.910347,
    "url":"https:\/\/www.walmart.com\/store\/402\/breaux-bridge-la\/details"
  },
  {
    "storeId":388,
    "store":"Murray Supercenter",
    "city":"Murray",
    "state":"KY",
    "country":"US",
    "lat":36.627014,
    "lng":-88.317878,
    "url":"https:\/\/www.walmart.com\/store\/410\/murray-ky\/details"
  },
  {
    "storeId":389,
    "store":"Port Arthur Supercenter",
    "city":"Port Arthur",
    "state":"TX",
    "country":"US",
    "lat":29.942076,
    "lng":-93.9937,
    "url":"https:\/\/www.walmart.com\/store\/408\/port-arthur-tx\/details"
  },
  {
    "storeId":390,
    "store":"Houston Store",
    "city":"Houston",
    "state":"MS",
    "country":"US",
    "lat":33.894702,
    "lng":-88.989563,
    "url":"https:\/\/www.walmart.com\/store\/411\/houston-ms\/details"
  },
  {
    "storeId":391,
    "store":"Port Isabel Supercenter",
    "city":"Port Isabel",
    "state":"TX",
    "country":"US",
    "lat":26.068984,
    "lng":-97.222507,
    "url":"https:\/\/www.walmart.com\/store\/413\/port-isabel-tx\/details"
  },
  {
    "storeId":392,
    "store":"Wichita Falls Supercenter",
    "city":"Wichita Falls",
    "state":"TX",
    "country":"US",
    "lat":33.850603,
    "lng":-98.501632,
    "url":"https:\/\/www.walmart.com\/store\/414\/wichita-falls-tx\/details"
  },
  {
    "storeId":393,
    "store":"Athens Supercenter",
    "city":"Athens",
    "state":"TX",
    "country":"US",
    "lat":32.210394,
    "lng":-95.832943,
    "url":"https:\/\/www.walmart.com\/store\/412\/athens-tx\/details"
  },
  {
    "storeId":394,
    "store":"Broussard Supercenter",
    "city":"Broussard",
    "state":"LA",
    "country":"US",
    "lat":30.144151,
    "lng":-91.943449,
    "url":"https:\/\/www.walmart.com\/store\/415\/broussard-la\/details"
  },
  {
    "storeId":395,
    "store":"Murfreesboro Supercenter",
    "city":"Murfreesboro",
    "state":"TN",
    "country":"US",
    "lat":35.775172,
    "lng":-86.399845,
    "url":"https:\/\/www.walmart.com\/store\/416\/murfreesboro-tn\/details"
  },
  {
    "storeId":396,
    "store":"Fairbury Supercenter",
    "city":"Fairbury",
    "state":"NE",
    "country":"US",
    "lat":40.162702,
    "lng":-97.175372,
    "url":"https:\/\/www.walmart.com\/store\/418\/fairbury-ne\/details"
  },
  {
    "storeId":397,
    "store":"Wichita Falls Supercenter",
    "city":"Wichita Falls",
    "state":"TX",
    "country":"US",
    "lat":33.951021,
    "lng":-98.529274,
    "url":"https:\/\/www.walmart.com\/store\/420\/wichita-falls-tx\/details"
  },
  {
    "storeId":398,
    "store":"Sulphur Springs Supercenter",
    "city":"Sulphur Springs",
    "state":"TX",
    "country":"US",
    "lat":33.105801,
    "lng":-95.595268,
    "url":"https:\/\/www.walmart.com\/store\/417\/sulphur-springs-tx\/details"
  },
  {
    "storeId":399,
    "store":"Pratt Supercenter",
    "city":"Pratt",
    "state":"KS",
    "country":"US",
    "lat":37.644053,
    "lng":-98.713481,
    "url":"https:\/\/www.walmart.com\/store\/419\/pratt-ks\/details"
  },
  {
    "storeId":400,
    "store":"Alabaster Supercenter",
    "city":"Alabaster",
    "state":"AL",
    "country":"US",
    "lat":33.2355308,
    "lng":-86.801229,
    "url":"https:\/\/www.walmart.com\/store\/423\/alabaster-al\/details"
  },
  {
    "storeId":401,
    "store":"Robinson Supercenter",
    "city":"Robinson",
    "state":"IL",
    "country":"US",
    "lat":39.0087859,
    "lng":-87.7238588,
    "url":"https:\/\/www.walmart.com\/store\/422\/robinson-il\/details"
  },
  {
    "storeId":402,
    "store":"Decatur Supercenter",
    "city":"Decatur",
    "state":"TX",
    "country":"US",
    "lat":33.228422,
    "lng":-97.597203,
    "url":"https:\/\/www.walmart.com\/store\/421\/decatur-tx\/details"
  },
  {
    "storeId":403,
    "store":"Brent Supercenter",
    "city":"Brent",
    "state":"AL",
    "country":"US",
    "lat":32.963956,
    "lng":-87.171887,
    "url":"https:\/\/www.walmart.com\/store\/425\/brent-al\/details"
  },
  {
    "storeId":404,
    "store":"Colony Supercenter",
    "city":"Colony",
    "state":"TX",
    "country":"US",
    "lat":33.067154,
    "lng":-96.89221,
    "url":"https:\/\/www.walmart.com\/store\/426\/colony-tx\/details"
  },
  {
    "storeId":405,
    "store":"Greenville Supercenter",
    "city":"Greenville",
    "state":"TX",
    "country":"US",
    "lat":33.093639,
    "lng":-96.106315,
    "url":"https:\/\/www.walmart.com\/store\/427\/greenville-tx\/details"
  },
  {
    "storeId":406,
    "store":"Zachary Supercenter",
    "city":"Zachary",
    "state":"LA",
    "country":"US",
    "lat":30.6511982,
    "lng":-91.1421476,
    "url":"https:\/\/www.walmart.com\/store\/428\/zachary-la\/details"
  },
  {
    "storeId":407,
    "store":"Edinburg Supercenter",
    "city":"Edinburg",
    "state":"TX",
    "country":"US",
    "lat":26.301269,
    "lng":-98.181031,
    "url":"https:\/\/www.walmart.com\/store\/429\/edinburg-tx\/details"
  },
  {
    "storeId":408,
    "store":"Mayfield Supercenter",
    "city":"Mayfield",
    "state":"KY",
    "country":"US",
    "lat":36.720985,
    "lng":-88.629795,
    "url":"https:\/\/www.walmart.com\/store\/430\/mayfield-ky\/details"
  },
  {
    "storeId":409,
    "store":"Clanton Supercenter",
    "city":"Clanton",
    "state":"AL",
    "country":"US",
    "lat":32.816741,
    "lng":-86.609419,
    "url":"https:\/\/www.walmart.com\/store\/424\/clanton-al\/details"
  },
  {
    "storeId":410,
    "store":"Paducah Supercenter",
    "city":"Paducah",
    "state":"KY",
    "country":"US",
    "lat":37.0540102,
    "lng":-88.5662728,
    "url":"https:\/\/www.walmart.com\/store\/431\/paducah-ky\/details"
  },
  {
    "storeId":411,
    "store":"Talladega Supercenter",
    "city":"Talladega",
    "state":"AL",
    "country":"US",
    "lat":33.438556,
    "lng":-86.080265,
    "url":"https:\/\/www.walmart.com\/store\/432\/talladega-al\/details"
  },
  {
    "storeId":412,
    "store":"Carlyle Supercenter",
    "city":"Carlyle",
    "state":"IL",
    "country":"US",
    "lat":38.629436,
    "lng":-89.376727,
    "url":"https:\/\/www.walmart.com\/store\/436\/carlyle-il\/details"
  },
  {
    "storeId":413,
    "store":"Huntsville Supercenter",
    "city":"Huntsville",
    "state":"AL",
    "country":"US",
    "lat":34.61586,
    "lng":-86.570681,
    "url":"https:\/\/www.walmart.com\/store\/434\/huntsville-al\/details"
  },
  {
    "storeId":414,
    "store":"Sealy Supercenter",
    "city":"Sealy",
    "state":"TX",
    "country":"US",
    "lat":29.757736,
    "lng":-96.152552,
    "url":"https:\/\/www.walmart.com\/store\/437\/sealy-tx\/details"
  },
  {
    "storeId":415,
    "store":"Huntsville Supercenter",
    "city":"Huntsville",
    "state":"AL",
    "country":"US",
    "lat":34.765195,
    "lng":-86.592346,
    "url":"https:\/\/www.walmart.com\/store\/433\/huntsville-al\/details"
  },